{
"type": "FeatureCollection",
"crs": { "type": "name", "properties": { "name": "urn:ogc:def:crs:OGC:1.3:CRS84" } },
                                                                                
"features": [
{ "type": "Feature", "properties": { "id": 1.000000, "osm_id": 462264016.000000, "name": "Esso Dunearn", "type": "fuel" }, "geometry": { "type": "Point", "coordinates": [ 103.798680670374154, 1.331034531702045 ] } },
{ "type": "Feature", "properties": { "id": 2.000000, "osm_id": 462263981.000000, "name": null, "type": "fuel" }, "geometry": { "type": "Point", "coordinates": [ 103.819329740299167, 1.323206169414107 ] } },
{ "type": "Feature", "properties": { "id": 3.000000, "osm_id": 521081225.000000, "name": null, "type": "school" }, "geometry": { "type": "Point", "coordinates": [ 103.840376699167834, 1.302797743929176 ] } },
{ "type": "Feature", "properties": { "id": 4.000000, "osm_id": 523763391.000000, "name": "Rumah Sakit Awal Bros.", "type": "hospital" }, "geometry": { "type": "Point", "coordinates": [ 104.016065161541178, 1.12095042674207 ] } },
{ "type": "Feature", "properties": { "id": 5.000000, "osm_id": 542894909.000000, "name": "Rumah Sakit Harapan Bunda", "type": "hospital" }, "geometry": { "type": "Point", "coordinates": [ 104.016539074346611, 1.147698672330336 ] } },
{ "type": "Feature", "properties": { "id": 6.000000, "osm_id": 599015159.000000, "name": "SPC", "type": "fuel" }, "geometry": { "type": "Point", "coordinates": [ 103.931731229494048, 1.314107362062174 ] } },
{ "type": "Feature", "properties": { "id": 7.000000, "osm_id": 601851062.000000, "name": "SMK Kolese Tiara Bangsa", "type": "school" }, "geometry": { "type": "Point", "coordinates": [ 104.048029968388505, 1.133303424182088 ] } },
{ "type": "Feature", "properties": { "id": 8.000000, "osm_id": 601846792.000000, "name": "SMK Pelayaran Maritim Nasional", "type": "school" }, "geometry": { "type": "Point", "coordinates": [ 104.030961563680137, 1.173376967978527 ] } },
{ "type": "Feature", "properties": { "id": 9.000000, "osm_id": 663145790.000000, "name": "Petronas Cahaya Masai", "type": "fuel" }, "geometry": { "type": "Point", "coordinates": [ 103.922603336938096, 1.505661761314542 ] } },
{ "type": "Feature", "properties": { "id": 10.000000, "osm_id": 663145375.000000, "name": "Politeknik Ibrahim Sultan", "type": "university" }, "geometry": { "type": "Point", "coordinates": [ 103.918966261513049, 1.509458428176032 ] } },
{ "type": "Feature", "properties": { "id": 11.000000, "osm_id": 663118297.000000, "name": "Shell Port Garage", "type": "fuel" }, "geometry": { "type": "Point", "coordinates": [ 103.904746949512401, 1.469265442259342 ] } },
{ "type": "Feature", "properties": { "id": 12.000000, "osm_id": 663145356.000000, "name": "SMK Kota Masai", "type": "school" }, "geometry": { "type": "Point", "coordinates": [ 103.925890551724706, 1.494954131467466 ] } },
{ "type": "Feature", "properties": { "id": 13.000000, "osm_id": 671202380.000000, "name": "Alexandra Fire Station", "type": "fire_station" }, "geometry": { "type": "Point", "coordinates": [ 103.802938425729153, 1.288591926792662 ] } },
{ "type": "Feature", "properties": { "id": 14.000000, "osm_id": 679650258.000000, "name": "Clementi Fire Station", "type": "fire_station" }, "geometry": { "type": "Point", "coordinates": [ 103.761688733279399, 1.321704970555743 ] } },
{ "type": "Feature", "properties": { "id": 15.000000, "osm_id": 700645194.000000, "name": null, "type": "fuel" }, "geometry": { "type": "Point", "coordinates": [ 103.964911999034825, 1.057884987264543 ] } },
{ "type": "Feature", "properties": { "id": 16.000000, "osm_id": 700645183.000000, "name": "Balai Pertemuan Tg.Riau", "type": "townhall" }, "geometry": { "type": "Point", "coordinates": [ 103.929869944075335, 1.099361996928366 ] } },
{ "type": "Feature", "properties": { "id": 17.000000, "osm_id": 700645257.000000, "name": "SDN 11 Tg.Riau", "type": "school" }, "geometry": { "type": "Point", "coordinates": [ 103.947722978739762, 1.101722927595233 ] } },
{ "type": "Feature", "properties": { "id": 18.000000, "osm_id": 700645258.000000, "name": "SMUN 1 Batam", "type": "school" }, "geometry": { "type": "Point", "coordinates": [ 103.950552960708251, 1.114403992725471 ] } },
{ "type": "Feature", "properties": { "id": 19.000000, "osm_id": 700645260.000000, "name": "Sekolah Basic Kristen", "type": "school" }, "geometry": { "type": "Point", "coordinates": [ 103.955298961923177, 1.052820976643233 ] } },
{ "type": "Feature", "properties": { "id": 20.000000, "osm_id": 700645247.000000, "name": "RB Aini", "type": "hospital" }, "geometry": { "type": "Point", "coordinates": [ 103.977721894016838, 1.052004830731221 ] } },
{ "type": "Feature", "properties": { "id": 21.000000, "osm_id": 700645256.000000, "name": "SDN 006 Sagulung", "type": "school" }, "geometry": { "type": "Point", "coordinates": [ 103.941908955422491, 1.046962948334283 ] } },
{ "type": "Feature", "properties": { "id": 22.000000, "osm_id": 702002716.000000, "name": "Sdn 019 Kecamatan Sei Beduk", "type": "school" }, "geometry": { "type": "Point", "coordinates": [ 103.975659945836128, 1.032029917278436 ] } },
{ "type": "Feature", "properties": { "id": 23.000000, "osm_id": 701966336.000000, "name": "Rsb Graga Hermina", "type": "hospital" }, "geometry": { "type": "Point", "coordinates": [ 103.973769994308554, 1.045250022601749 ] } },
{ "type": "Feature", "properties": { "id": 24.000000, "osm_id": 702021798.000000, "name": "SMPN 026", "type": "school" }, "geometry": { "type": "Point", "coordinates": [ 103.978069994455609, 1.054519820778438 ] } },
{ "type": "Feature", "properties": { "id": 25.000000, "osm_id": 701982800.000000, "name": "Universitas Putera Batam", "type": "university" }, "geometry": { "type": "Point", "coordinates": [ 103.968989878747777, 1.04637998696856 ] } },
{ "type": "Feature", "properties": { "id": 26.000000, "osm_id": 702002584.000000, "name": "SLTPN 21 Batam", "type": "school" }, "geometry": { "type": "Point", "coordinates": [ 103.961829973237897, 1.037139944548158 ] } },
{ "type": "Feature", "properties": { "id": 27.000000, "osm_id": 702002990.000000, "name": "TKI Yaa Bunayya 1", "type": "school" }, "geometry": { "type": "Point", "coordinates": [ 103.98110985927957, 1.048190058958909 ] } },
{ "type": "Feature", "properties": { "id": 28.000000, "osm_id": 702039357.000000, "name": "Universitas Riau Kepulauan", "type": "university" }, "geometry": { "type": "Point", "coordinates": [ 103.968219917122212, 1.048699930128947 ] } },
{ "type": "Feature", "properties": { "id": 29.000000, "osm_id": 702021818.000000, "name": "Puskesmas Batu Aji", "type": "hospital" }, "geometry": { "type": "Point", "coordinates": [ 103.978299993878693, 1.054519820778438 ] } },
{ "type": "Feature", "properties": { "id": 30.000000, "osm_id": 702155069.000000, "name": "SDIT Lukmanul Hakim", "type": "school" }, "geometry": { "type": "Point", "coordinates": [ 103.981723079315714, 1.04783416335016 ] } },
{ "type": "Feature", "properties": { "id": 31.000000, "osm_id": 702170282.000000, "name": "SDN 2 Tembesi", "type": "school" }, "geometry": { "type": "Point", "coordinates": [ 103.999779961865329, 1.03764998335626 ] } },
{ "type": "Feature", "properties": { "id": 32.000000, "osm_id": 702183002.000000, "name": "Fuel Temiang", "type": "fuel" }, "geometry": { "type": "Point", "coordinates": [ 103.968329971510911, 1.062239972696403 ] } },
{ "type": "Feature", "properties": { "id": 33.000000, "osm_id": 702182327.000000, "name": "Fuel Station (Spbu Tembesi)", "type": "fuel" }, "geometry": { "type": "Point", "coordinates": [ 104.000599963452828, 1.040049973691936 ] } },
{ "type": "Feature", "properties": { "id": 34.000000, "osm_id": 702158809.000000, "name": "SMKN 1 Batu Aji", "type": "school" }, "geometry": { "type": "Point", "coordinates": [ 103.989999957242503, 1.043889974992823 ] } },
{ "type": "Feature", "properties": { "id": 35.000000, "osm_id": 702158851.000000, "name": "SD-SMP-SMA Muhammadiyah", "type": "school" }, "geometry": { "type": "Point", "coordinates": [ 103.989999957242503, 1.045179949891235 ] } },
{ "type": "Feature", "properties": { "id": 36.000000, "osm_id": 702191755.000000, "name": null, "type": "police" }, "geometry": { "type": "Point", "coordinates": [ 103.929769947970499, 1.053849939076798 ] } },
{ "type": "Feature", "properties": { "id": 37.000000, "osm_id": 702191760.000000, "name": "Fire Fighter (Pemadam Kebakaran Sagulung)", "type": "fire_station" }, "geometry": { "type": "Point", "coordinates": [ 103.930499927917865, 1.05285995249298 ] } },
{ "type": "Feature", "properties": { "id": 38.000000, "osm_id": 702196805.000000, "name": "Ponpes. Internasional Bina Ummah", "type": "school" }, "geometry": { "type": "Point", "coordinates": [ 103.98373549044868, 1.047302750688942 ] } },
{ "type": "Feature", "properties": { "id": 39.000000, "osm_id": 702326829.000000, "name": "Madrasah Aliyah Negeri Kota Batam", "type": "school" }, "geometry": { "type": "Point", "coordinates": [ 103.938649987649626, 1.045529978167735 ] } },
{ "type": "Feature", "properties": { "id": 40.000000, "osm_id": 702328175.000000, "name": null, "type": "fuel" }, "geometry": { "type": "Point", "coordinates": [ 103.953779993430089, 1.050069952202648 ] } },
{ "type": "Feature", "properties": { "id": 41.000000, "osm_id": 702327648.000000, "name": "RSUD", "type": "hospital" }, "geometry": { "type": "Point", "coordinates": [ 103.942639941198252, 1.047629980188844 ] } },
{ "type": "Feature", "properties": { "id": 42.000000, "osm_id": 702328164.000000, "name": "Sdn 006 Sagulung", "type": "school" }, "geometry": { "type": "Point", "coordinates": [ 103.941909961250857, 1.046959930849141 ] } },
{ "type": "Feature", "properties": { "id": 43.000000, "osm_id": 702331020.000000, "name": "Police (Pos Polisi Pel.Sagulung)", "type": "police" }, "geometry": { "type": "Point", "coordinates": [ 103.92525998114894, 1.02661998551315 ] } },
{ "type": "Feature", "properties": { "id": 44.000000, "osm_id": 702350219.000000, "name": "Fuel Sukajadi", "type": "fuel" }, "geometry": { "type": "Point", "coordinates": [ 104.02222996750622, 1.113949945030583 ] } },
{ "type": "Feature", "properties": { "id": 45.000000, "osm_id": 702352162.000000, "name": "Fuel Station Duriangkang", "type": "fuel" }, "geometry": { "type": "Point", "coordinates": [ 104.036578863729957, 1.097157388755647 ] } },
{ "type": "Feature", "properties": { "id": 46.000000, "osm_id": 702331555.000000, "name": null, "type": "police" }, "geometry": { "type": "Point", "coordinates": [ 103.937059940617587, 1.081099925389054 ] } },
{ "type": "Feature", "properties": { "id": 47.000000, "osm_id": 702332585.000000, "name": "Lurah Tg.Riau Office", "type": "townhall" }, "geometry": { "type": "Point", "coordinates": [ 103.934869916956416, 1.100369920784971 ] } },
{ "type": "Feature", "properties": { "id": 48.000000, "osm_id": 702349813.000000, "name": "Police Hq(Poltabes Barelang)", "type": "police" }, "geometry": { "type": "Point", "coordinates": [ 104.020269943268147, 1.118089934646036 ] } },
{ "type": "Feature", "properties": { "id": 49.000000, "osm_id": 702366946.000000, "name": "SMPN 18 Sembulang", "type": "school" }, "geometry": { "type": "Point", "coordinates": [ 104.26085998482813, 0.853179968666154 ] } },
{ "type": "Feature", "properties": { "id": 50.000000, "osm_id": 702355108.000000, "name": "Fire Fighter Pel.Sekupang", "type": "fire_station" }, "geometry": { "type": "Point", "coordinates": [ 103.927999941477367, 1.125759962783036 ] } },
{ "type": "Feature", "properties": { "id": 51.000000, "osm_id": 702355083.000000, "name": "RSOB", "type": "hospital" }, "geometry": { "type": "Point", "coordinates": [ 103.930959926764046, 1.129699960188759 ] } },
{ "type": "Feature", "properties": { "id": 52.000000, "osm_id": 702355102.000000, "name": "Lurah Tg.Pinggir", "type": "townhall" }, "geometry": { "type": "Point", "coordinates": [ 103.926379971051006, 1.12978998182885 ] } },
{ "type": "Feature", "properties": { "id": 53.000000, "osm_id": 702670793.000000, "name": "Sekolah Al-Azhar", "type": "school" }, "geometry": { "type": "Point", "coordinates": [ 104.020039943845063, 1.133569968703 ] } },
{ "type": "Feature", "properties": { "id": 54.000000, "osm_id": 702672444.000000, "name": "Police (Polsek Lubuk Baja)", "type": "police" }, "geometry": { "type": "Point", "coordinates": [ 104.016579978034088, 1.13199995441957 ] } },
{ "type": "Feature", "properties": { "id": 55.000000, "osm_id": 702672484.000000, "name": "Camat Lubuk Baja Office", "type": "townhall" }, "geometry": { "type": "Point", "coordinates": [ 104.01632994586241, 1.132169939415945 ] } },
{ "type": "Feature", "properties": { "id": 56.000000, "osm_id": 702670734.000000, "name": "Fuel Station (Spbu Sma Al Azhar)", "type": "fuel" }, "geometry": { "type": "Point", "coordinates": [ 104.021219948173837, 1.133199991496923 ] } },
{ "type": "Feature", "properties": { "id": 57.000000, "osm_id": 703809447.000000, "name": "Police (Polsekta Batu Ampar)", "type": "police" }, "geometry": { "type": "Point", "coordinates": [ 104.00271999822246, 1.162319980407204 ] } },
{ "type": "Feature", "properties": { "id": 58.000000, "osm_id": 702684970.000000, "name": "SDN 02 Sungai Panas", "type": "school" }, "geometry": { "type": "Point", "coordinates": [ 104.026989966499457, 1.136529953989708 ] } },
{ "type": "Feature", "properties": { "id": 59.000000, "osm_id": 702672880.000000, "name": "RS Ibu Dan Anak Permata Hati", "type": "hospital" }, "geometry": { "type": "Point", "coordinates": [ 104.015759976446589, 1.132749967115558 ] } },
{ "type": "Feature", "properties": { "id": 60.000000, "osm_id": 702672915.000000, "name": "Y Pddk K Imnl", "type": "school" }, "geometry": { "type": "Point", "coordinates": [ 104.016149986401274, 1.133689997556445 ] } },
{ "type": "Feature", "properties": { "id": 61.000000, "osm_id": 702710893.000000, "name": "Fire Fighter Duriangkang", "type": "fire_station" }, "geometry": { "type": "Point", "coordinates": [ 104.032999958712935, 1.088809935204182 ] } },
{ "type": "Feature", "properties": { "id": 62.000000, "osm_id": 703792589.000000, "name": "SDN 05 Batu Ampar", "type": "school" }, "geometry": { "type": "Point", "coordinates": [ 104.016779970243817, 1.17424994319407 ] } },
{ "type": "Feature", "properties": { "id": 63.000000, "osm_id": 702672836.000000, "name": "Clinic Rsob", "type": "hospital" }, "geometry": { "type": "Point", "coordinates": [ 104.016499930858799, 1.13208997605966 ] } },
{ "type": "Feature", "properties": { "id": 64.000000, "osm_id": 702684977.000000, "name": "Pemadam Kebakaran Sei.Panas", "type": "fire_station" }, "geometry": { "type": "Point", "coordinates": [ 104.027829917016504, 1.135949926290095 ] } },
{ "type": "Feature", "properties": { "id": 65.000000, "osm_id": 703858078.000000, "name": "Fuel Station(Spbu Simpang Jam)", "type": "fuel" }, "geometry": { "type": "Point", "coordinates": [ 104.019979929418355, 1.122059939265142 ] } },
{ "type": "Feature", "properties": { "id": 66.000000, "osm_id": 703814989.000000, "name": "Fuel Harbour Bay", "type": "fuel" }, "geometry": { "type": "Point", "coordinates": [ 104.002379860591702, 1.15401996842769 ] } },
{ "type": "Feature", "properties": { "id": 67.000000, "osm_id": 705065131.000000, "name": "SDN 6", "type": "school" }, "geometry": { "type": "Point", "coordinates": [ 103.969959916402047, 1.102429941127923 ] } },
{ "type": "Feature", "properties": { "id": 68.000000, "osm_id": 705062464.000000, "name": "SMP Negeri 3 Batam", "type": "school" }, "geometry": { "type": "Point", "coordinates": [ 103.95258993081751, 1.106529949065248 ] } },
{ "type": "Feature", "properties": { "id": 69.000000, "osm_id": 705062461.000000, "name": "SMP Kartini Sekupang", "type": "school" }, "geometry": { "type": "Point", "coordinates": [ 103.950859989821481, 1.106569930743376 ] } },
{ "type": "Feature", "properties": { "id": 70.000000, "osm_id": 707543708.000000, "name": "SDN 14", "type": "school" }, "geometry": { "type": "Point", "coordinates": [ 103.987809933581332, 1.108499947768109 ] } },
{ "type": "Feature", "properties": { "id": 71.000000, "osm_id": 707537290.000000, "name": "Fuel Bensin Mekar Sari", "type": "fuel" }, "geometry": { "type": "Point", "coordinates": [ 103.97865882315358, 1.111335294154628 ] } },
{ "type": "Feature", "properties": { "id": 72.000000, "osm_id": 705065132.000000, "name": "SMPN 20", "type": "school" }, "geometry": { "type": "Point", "coordinates": [ 103.969459935877751, 1.102169934491485 ] } },
{ "type": "Feature", "properties": { "id": 73.000000, "osm_id": 705081080.000000, "name": "Kecamatan Sekupang", "type": "townhall" }, "geometry": { "type": "Point", "coordinates": [ 103.949249993859951, 1.111569987443488 ] } },
{ "type": "Feature", "properties": { "id": 74.000000, "osm_id": 705066410.000000, "name": "Sekolah Kasih Kurnia (Kristen)", "type": "school" }, "geometry": { "type": "Point", "coordinates": [ 103.967899979878098, 1.10281995108258 ] } },
{ "type": "Feature", "properties": { "id": 75.000000, "osm_id": 705081950.000000, "name": "Lurah Sei Harapan Office", "type": "townhall" }, "geometry": { "type": "Point", "coordinates": [ 103.954119963422784, 1.109229927715518 ] } },
{ "type": "Feature", "properties": { "id": 76.000000, "osm_id": 705081941.000000, "name": "Fuel Station (Rumah Hitam) Sekupang", "type": "fuel" }, "geometry": { "type": "Point", "coordinates": [ 103.949529949425937, 1.110089994800148 ] } },
{ "type": "Feature", "properties": { "id": 77.000000, "osm_id": 707545956.000000, "name": "SMAN 4", "type": "school" }, "geometry": { "type": "Point", "coordinates": [ 103.981969926364158, 1.103419927711741 ] } },
{ "type": "Feature", "properties": { "id": 78.000000, "osm_id": 707563749.000000, "name": "SD Sandy Putra", "type": "school" }, "geometry": { "type": "Point", "coordinates": [ 103.977529948434153, 1.117169936953701 ] } },
{ "type": "Feature", "properties": { "id": 79.000000, "osm_id": 707563769.000000, "name": "SDN 007 Tiban", "type": "school" }, "geometry": { "type": "Point", "coordinates": [ 103.979569936028497, 1.117129955275573 ] } },
{ "type": "Feature", "properties": { "id": 80.000000, "osm_id": 707544012.000000, "name": "Polisi Hutan Pos", "type": "police" }, "geometry": { "type": "Point", "coordinates": [ 103.988839985662295, 1.101739942858671 ] } },
{ "type": "Feature", "properties": { "id": 81.000000, "osm_id": 707562556.000000, "name": "Lurah Tiban Indah Office", "type": "townhall" }, "geometry": { "type": "Point", "coordinates": [ 103.977509999504605, 1.117689950226605 ] } },
{ "type": "Feature", "properties": { "id": 82.000000, "osm_id": 707578540.000000, "name": "SD Al Azhar Tiban", "type": "school" }, "geometry": { "type": "Point", "coordinates": [ 103.977229960119587, 1.118399981244437 ] } },
{ "type": "Feature", "properties": { "id": 83.000000, "osm_id": 707601810.000000, "name": "Malay School", "type": "school" }, "geometry": { "type": "Point", "coordinates": [ 103.967789925489441, 1.117839986293404 ] } },
{ "type": "Feature", "properties": { "id": 84.000000, "osm_id": 707689075.000000, "name": "SDN 03 Patam Lestari", "type": "school" }, "geometry": { "type": "Point", "coordinates": [ 103.960019985066594, 1.126889927149847 ] } },
{ "type": "Feature", "properties": { "id": 85.000000, "osm_id": 707578570.000000, "name": "SDN 02 Tiban", "type": "school" }, "geometry": { "type": "Point", "coordinates": [ 103.977999921745081, 1.118739951237131 ] } },
{ "type": "Feature", "properties": { "id": 86.000000, "osm_id": 707605397.000000, "name": "Kantor Lurah Patam Lestari", "type": "townhall" }, "geometry": { "type": "Point", "coordinates": [ 103.969029944244923, 1.115049986003072 ] } },
{ "type": "Feature", "properties": { "id": 87.000000, "osm_id": 707606017.000000, "name": "Fuel Bensin Tiban 3", "type": "fuel" }, "geometry": { "type": "Point", "coordinates": [ 103.965979937318139, 1.109209978785941 ] } },
{ "type": "Feature", "properties": { "id": 88.000000, "osm_id": 707768319.000000, "name": "Lurah Muka Kuning Office", "type": "townhall" }, "geometry": { "type": "Point", "coordinates": [ 104.01865994730656, 1.067219996647907 ] } },
{ "type": "Feature", "properties": { "id": 89.000000, "osm_id": 718922043.000000, "name": null, "type": "police" }, "geometry": { "type": "Point", "coordinates": [ 104.036019958426323, 1.065459964619549 ] } },
{ "type": "Feature", "properties": { "id": 90.000000, "osm_id": 707694708.000000, "name": "SDIT Ulil Albab", "type": "school" }, "geometry": { "type": "Point", "coordinates": [ 103.974739948143792, 1.12156993320562 ] } },
{ "type": "Feature", "properties": { "id": 91.000000, "osm_id": 707810003.000000, "name": "Casa Medica", "type": "hospital" }, "geometry": { "type": "Point", "coordinates": [ 104.025339988859741, 1.073679929423747 ] } },
{ "type": "Feature", "properties": { "id": 92.000000, "osm_id": 718919180.000000, "name": "Pospol MKGR", "type": "police" }, "geometry": { "type": "Point", "coordinates": [ 103.982658080614726, 1.042575860213276 ] } },
{ "type": "Feature", "properties": { "id": 93.000000, "osm_id": 718947462.000000, "name": "SMK Kartini", "type": "school" }, "geometry": { "type": "Point", "coordinates": [ 104.006349949029811, 1.121939994230729 ] } },
{ "type": "Feature", "properties": { "id": 94.000000, "osm_id": 718941108.000000, "name": "Universitas International Batam", "type": "university" }, "geometry": { "type": "Point", "coordinates": [ 104.00307991714476, 1.119579985573182 ] } },
{ "type": "Feature", "properties": { "id": 95.000000, "osm_id": 719039586.000000, "name": "Smp Hang Kesturi", "type": "school" }, "geometry": { "type": "Point", "coordinates": [ 103.993919921899646, 1.145949955871259 ] } },
{ "type": "Feature", "properties": { "id": 96.000000, "osm_id": 718932258.000000, "name": "Fuel Uib", "type": "fuel" }, "geometry": { "type": "Point", "coordinates": [ 104.005189977449675, 1.121009938254588 ] } },
{ "type": "Feature", "properties": { "id": 97.000000, "osm_id": 719041595.000000, "name": "Tk Myng Suri", "type": "school" }, "geometry": { "type": "Point", "coordinates": [ 103.994869926805336, 1.147859940147413 ] } },
{ "type": "Feature", "properties": { "id": 98.000000, "osm_id": 719041471.000000, "name": "Lurah T.Uma Office", "type": "townhall" }, "geometry": { "type": "Point", "coordinates": [ 103.995367057482554, 1.146483631646305 ] } },
{ "type": "Feature", "properties": { "id": 99.000000, "osm_id": 719041556.000000, "name": "Sd N 004", "type": "school" }, "geometry": { "type": "Point", "coordinates": [ 103.995964351902671, 1.146354047423245 ] } },
{ "type": "Feature", "properties": { "id": 100.000000, "osm_id": 719041580.000000, "name": "Sd N 006", "type": "school" }, "geometry": { "type": "Point", "coordinates": [ 103.9959628431601, 1.14605364001352 ] } },
{ "type": "Feature", "properties": { "id": 101.000000, "osm_id": 719041320.000000, "name": "Sdn 06 Tg.Uma", "type": "school" }, "geometry": { "type": "Point", "coordinates": [ 103.995811549807854, 1.145974347209489 ] } },
{ "type": "Feature", "properties": { "id": 102.000000, "osm_id": 719059104.000000, "name": "Sd Al Barkah", "type": "school" }, "geometry": { "type": "Point", "coordinates": [ 104.014159954949832, 1.131119938405391 ] } },
{ "type": "Feature", "properties": { "id": 103.000000, "osm_id": 719066147.000000, "name": "Sdn.09 L Baja", "type": "school" }, "geometry": { "type": "Point", "coordinates": [ 104.003709984806335, 1.131549930038204 ] } },
{ "type": "Feature", "properties": { "id": 104.000000, "osm_id": 719066146.000000, "name": "Sdn.003 L.Baja", "type": "school" }, "geometry": { "type": "Point", "coordinates": [ 104.003579981488073, 1.131759980531712 ] } },
{ "type": "Feature", "properties": { "id": 105.000000, "osm_id": 719062314.000000, "name": "Tk Cia", "type": "school" }, "geometry": { "type": "Point", "coordinates": [ 104.007309928400275, 1.126509975478996 ] } },
{ "type": "Feature", "properties": { "id": 106.000000, "osm_id": 719059161.000000, "name": "Lurah Baloi Indah Office", "type": "townhall" }, "geometry": { "type": "Point", "coordinates": [ 104.011739931865577, 1.13135999611228 ] } },
{ "type": "Feature", "properties": { "id": 107.000000, "osm_id": 736599362.000000, "name": "Batam Medical Centre", "type": "hospital" }, "geometry": { "type": "Point", "coordinates": [ 104.015099985390734, 1.138929944325383 ] } },
{ "type": "Feature", "properties": { "id": 108.000000, "osm_id": 719066142.000000, "name": "Rs Bersalin Mitra Bunda", "type": "hospital" }, "geometry": { "type": "Point", "coordinates": [ 104.004689996925379, 1.132259961056008 ] } },
{ "type": "Feature", "properties": { "id": 109.000000, "osm_id": 736609364.000000, "name": "Lurah Batu Slicin Office", "type": "townhall" }, "geometry": { "type": "Point", "coordinates": [ 104.012639980628364, 1.132489960479091 ] } },
{ "type": "Feature", "properties": { "id": 110.000000, "osm_id": 736599302.000000, "name": "SDN 007", "type": "school" }, "geometry": { "type": "Point", "coordinates": [ 104.014159954949832, 1.132879970433777 ] } },
{ "type": "Feature", "properties": { "id": 111.000000, "osm_id": 736609369.000000, "name": "RS Elisabeth", "type": "hospital" }, "geometry": { "type": "Point", "coordinates": [ 104.015079952642168, 1.135749934080366 ] } },
{ "type": "Feature", "properties": { "id": 112.000000, "osm_id": 736609236.000000, "name": "Clinic Bunda Baloi", "type": "hospital" }, "geometry": { "type": "Point", "coordinates": [ 104.007039947299049, 1.131829969423222 ] } },
{ "type": "Feature", "properties": { "id": 113.000000, "osm_id": 736630440.000000, "name": "Fuel Seraya", "type": "fuel" }, "geometry": { "type": "Point", "coordinates": [ 104.01702991859645, 1.147939987322701 ] } },
{ "type": "Feature", "properties": { "id": 114.000000, "osm_id": 736630473.000000, "name": "Lurah K.Pelita Office", "type": "townhall" }, "geometry": { "type": "Point", "coordinates": [ 104.018769917876227, 1.14559992759473 ] } },
{ "type": "Feature", "properties": { "id": 115.000000, "osm_id": 736645445.000000, "name": "Klinik Bersalin Elizabeth", "type": "hospital" }, "geometry": { "type": "Point", "coordinates": [ 104.022139945866158, 1.184229940026626 ] } },
{ "type": "Feature", "properties": { "id": 116.000000, "osm_id": 736645502.000000, "name": "SDN 04 Tg.Sengkuang", "type": "school" }, "geometry": { "type": "Point", "coordinates": [ 104.019479948894059, 1.185319922715308 ] } },
{ "type": "Feature", "properties": { "id": 117.000000, "osm_id": 736645604.000000, "name": "Pltd Tg.Sengkuang", "type": "police" }, "geometry": { "type": "Point", "coordinates": [ 104.022519981356027, 1.178819924442308 ] } },
{ "type": "Feature", "properties": { "id": 118.000000, "osm_id": 736645703.000000, "name": "Lurah T.Sengkuang Office", "type": "townhall" }, "geometry": { "type": "Point", "coordinates": [ 104.014729924365597, 1.18379994839384 ] } },
{ "type": "Feature", "properties": { "id": 119.000000, "osm_id": 736645876.000000, "name": "Puskesmas T.Sengkuang", "type": "hospital" }, "geometry": { "type": "Point", "coordinates": [ 104.014669993757934, 1.183429971187763 ] } },
{ "type": "Feature", "properties": { "id": 120.000000, "osm_id": 736646050.000000, "name": "SMPN 29", "type": "school" }, "geometry": { "type": "Point", "coordinates": [ 104.020829938219137, 1.177019994554854 ] } },
{ "type": "Feature", "properties": { "id": 121.000000, "osm_id": 736660516.000000, "name": "SDN 03 Tg. Sengkuang", "type": "school" }, "geometry": { "type": "Point", "coordinates": [ 104.019989987702161, 1.184959919974006 ] } },
{ "type": "Feature", "properties": { "id": 122.000000, "osm_id": 736619029.000000, "name": "Lurah L.Baja Kota Office", "type": "townhall" }, "geometry": { "type": "Point", "coordinates": [ 104.016259956970941, 1.142169968997109 ] } },
{ "type": "Feature", "properties": { "id": 123.000000, "osm_id": 736609397.000000, "name": "SDN 02 Lubuk Baja", "type": "school" }, "geometry": { "type": "Point", "coordinates": [ 104.01572996923322, 1.137079974475938 ] } },
{ "type": "Feature", "properties": { "id": 124.000000, "osm_id": 760473197.000000, "name": "Perguruan Tinggi Nasional Batam", "type": "university" }, "geometry": { "type": "Point", "coordinates": [ 104.079749939844191, 1.106919959019905 ] } },
{ "type": "Feature", "properties": { "id": 125.000000, "osm_id": 736621162.000000, "name": "Fuel Station(Spbu Bel.Bca Jdh)", "type": "fuel" }, "geometry": { "type": "Point", "coordinates": [ 104.005679899690165, 1.153200050659251 ] } },
{ "type": "Feature", "properties": { "id": 126.000000, "osm_id": 736622241.000000, "name": "Pos Police", "type": "police" }, "geometry": { "type": "Point", "coordinates": [ 104.005299948019285, 1.152279969147884 ] } },
{ "type": "Feature", "properties": { "id": 127.000000, "osm_id": 736628811.000000, "name": "Universitas Ibnu Sina Seraya", "type": "university" }, "geometry": { "type": "Point", "coordinates": [ 104.016279822081458, 1.146050035795156 ] } },
{ "type": "Feature", "properties": { "id": 128.000000, "osm_id": 736630305.000000, "name": "Fuel Station (Spbu Hapan Bunda)", "type": "fuel" }, "geometry": { "type": "Point", "coordinates": [ 104.017179870844188, 1.148200077778199 ] } },
{ "type": "Feature", "properties": { "id": 129.000000, "osm_id": 736630438.000000, "name": "SDN 08 Lubuk Baja", "type": "school" }, "geometry": { "type": "Point", "coordinates": [ 104.020619971544704, 1.137919924992957 ] } },
{ "type": "Feature", "properties": { "id": 130.000000, "osm_id": 760473185.000000, "name": "Sekolah Nasional", "type": "school" }, "geometry": { "type": "Point", "coordinates": [ 104.079429918780988, 1.10774993507215 ] } },
{ "type": "Feature", "properties": { "id": 131.000000, "osm_id": 736609400.000000, "name": "SDN 05 Lubuk Baja", "type": "school" }, "geometry": { "type": "Point", "coordinates": [ 104.01612995365268, 1.136849975052882 ] } },
{ "type": "Feature", "properties": { "id": 132.000000, "osm_id": 760473198.000000, "name": "Universitas Batam", "type": "university" }, "geometry": { "type": "Point", "coordinates": [ 104.08325374300874, 1.107093464415612 ] } },
{ "type": "Feature", "properties": { "id": 133.000000, "osm_id": 736609401.000000, "name": "Sklh Advent", "type": "school" }, "geometry": { "type": "Point", "coordinates": [ 104.013039965047767, 1.137079974475938 ] } },
{ "type": "Feature", "properties": { "id": 134.000000, "osm_id": 736609402.000000, "name": "Sklh Ananda", "type": "school" }, "geometry": { "type": "Point", "coordinates": [ 104.013169968366014, 1.137919924992957 ] } },
{ "type": "Feature", "properties": { "id": 135.000000, "osm_id": 760475100.000000, "name": "Fuel Station(Spbu Kda Btm Kota)", "type": "fuel" }, "geometry": { "type": "Point", "coordinates": [ 104.076339930176118, 1.101569957862324 ] } },
{ "type": "Feature", "properties": { "id": 136.000000, "osm_id": 736609405.000000, "name": "Tk Gading Mas", "type": "school" }, "geometry": { "type": "Point", "coordinates": [ 104.015599965915044, 1.137279966685668 ] } },
{ "type": "Feature", "properties": { "id": 137.000000, "osm_id": 736609411.000000, "name": "Tk Yos Sudrso", "type": "school" }, "geometry": { "type": "Point", "coordinates": [ 104.015279944851827, 1.136379917922909 ] } },
{ "type": "Feature", "properties": { "id": 138.000000, "osm_id": 736618330.000000, "name": "Puskesmas Lubuk Baja", "type": "hospital" }, "geometry": { "type": "Point", "coordinates": [ 104.001689946141482, 1.143889935528307 ] } },
{ "type": "Feature", "properties": { "id": 139.000000, "osm_id": 760485238.000000, "name": "SPBU Kapital Raya", "type": "fuel" }, "geometry": { "type": "Point", "coordinates": [ 104.090363357099591, 1.107250457462044 ] } },
{ "type": "Feature", "properties": { "id": 140.000000, "osm_id": 760485865.000000, "name": "SMAN 3", "type": "school" }, "geometry": { "type": "Point", "coordinates": [ 104.102819954862809, 1.131159920083519 ] } },
{ "type": "Feature", "properties": { "id": 141.000000, "osm_id": 760493857.000000, "name": "SDN 10 Nongsa", "type": "school" }, "geometry": { "type": "Point", "coordinates": [ 104.14075996902551, 1.126789931044982 ] } },
{ "type": "Feature", "properties": { "id": 142.000000, "osm_id": 760491346.000000, "name": "Fuel Station(Spbu Kabil)", "type": "fuel" }, "geometry": { "type": "Point", "coordinates": [ 104.117599932366758, 1.083909958427995 ] } },
{ "type": "Feature", "properties": { "id": 143.000000, "osm_id": 760490493.000000, "name": "Sekolah Permata Nusantara Permata Bandara", "type": "school" }, "geometry": { "type": "Point", "coordinates": [ 104.116449935251339, 1.138269953269486 ] } },
{ "type": "Feature", "properties": { "id": 144.000000, "osm_id": 760530229.000000, "name": "SMPN 08", "type": "school" }, "geometry": { "type": "Point", "coordinates": [ 104.094859996695035, 1.159889982858175 ] } },
{ "type": "Feature", "properties": { "id": 145.000000, "osm_id": 760489501.000000, "name": "SMPN 28", "type": "school" }, "geometry": { "type": "Point", "coordinates": [ 104.093509923550926, 1.123909992933591 ] } },
{ "type": "Feature", "properties": { "id": 146.000000, "osm_id": 760502507.000000, "name": "Pondok Pesantren Darul Falah-Nongsa", "type": "school" }, "geometry": { "type": "Point", "coordinates": [ 104.126919938143416, 1.14731997794496 ] } },
{ "type": "Feature", "properties": { "id": 147.000000, "osm_id": 760547087.000000, "name": "SDN 006 Nongsa", "type": "school" }, "geometry": { "type": "Point", "coordinates": [ 104.107429917789204, 1.185749998167154 ] } },
{ "type": "Feature", "properties": { "id": 148.000000, "osm_id": 760565090.000000, "name": "Camat Sei Beduk Office", "type": "townhall" }, "geometry": { "type": "Point", "coordinates": [ 104.084129987166534, 1.03974998537737 ] } },
{ "type": "Feature", "properties": { "id": 149.000000, "osm_id": 760521717.000000, "name": "Madrasah Tsanawiyah Al Falah", "type": "school" }, "geometry": { "type": "Point", "coordinates": [ 104.126439990367714, 1.14658999799758 ] } },
{ "type": "Feature", "properties": { "id": 150.000000, "osm_id": 760554294.000000, "name": "SDN 07 Nongsa", "type": "school" }, "geometry": { "type": "Point", "coordinates": [ 104.13461997349377, 1.08736992423897 ] } },
{ "type": "Feature", "properties": { "id": 151.000000, "osm_id": 760556413.000000, "name": "Pondok Pesantren Al Kautsar", "type": "university" }, "geometry": { "type": "Point", "coordinates": [ 104.120999967570071, 1.064579948605342 ] } },
{ "type": "Feature", "properties": { "id": 152.000000, "osm_id": 760522881.000000, "name": "Lurah Batu Besar Office", "type": "townhall" }, "geometry": { "type": "Point", "coordinates": [ 104.128809973490036, 1.152509968570968 ] } },
{ "type": "Feature", "properties": { "id": 153.000000, "osm_id": 851233945.000000, "name": "SMKN 2", "type": "school" }, "geometry": { "type": "Point", "coordinates": [ 104.05067999089583, 1.104579983110966 ] } },
{ "type": "Feature", "properties": { "id": 154.000000, "osm_id": 851233968.000000, "name": "SMP Negri 12 Batam", "type": "school" }, "geometry": { "type": "Point", "coordinates": [ 104.055479971567195, 1.104529943149032 ] } },
{ "type": "Feature", "properties": { "id": 155.000000, "osm_id": 760584397.000000, "name": "SMPN 17", "type": "school" }, "geometry": { "type": "Point", "coordinates": [ 104.126379975941006, 1.039369949887458 ] } },
{ "type": "Feature", "properties": { "id": 156.000000, "osm_id": 856921618.000000, "name": "SDN 05 Batam Kota", "type": "school" }, "geometry": { "type": "Point", "coordinates": [ 104.041562575718842, 1.105258581991905 ] } },
{ "type": "Feature", "properties": { "id": 157.000000, "osm_id": 856936357.000000, "name": "Kristen Basic School", "type": "school" }, "geometry": { "type": "Point", "coordinates": [ 104.048209927849655, 1.115969983695379 ] } },
{ "type": "Feature", "properties": { "id": 158.000000, "osm_id": 856982252.000000, "name": "Sekolah Kalista", "type": "school" }, "geometry": { "type": "Point", "coordinates": [ 104.059459950651103, 1.117369929163431 ] } },
{ "type": "Feature", "properties": { "id": 159.000000, "osm_id": 856982312.000000, "name": "Fuel Station(Spbu Pih)", "type": "fuel" }, "geometry": { "type": "Point", "coordinates": [ 104.057739984119848, 1.123329965233978 ] } },
{ "type": "Feature", "properties": { "id": 160.000000, "osm_id": 898912083.000000, "name": "Lurah Teluk Tering Office", "type": "townhall" }, "geometry": { "type": "Point", "coordinates": [ 104.043879920489246, 1.126209987164401 ] } },
{ "type": "Feature", "properties": { "id": 161.000000, "osm_id": 856985677.000000, "name": "Police (Polsekta Btm.Ctr)", "type": "police" }, "geometry": { "type": "Point", "coordinates": [ 104.057179989168844, 1.126209987164401 ] } },
{ "type": "Feature", "properties": { "id": 162.000000, "osm_id": 886025576.000000, "name": "Adam Road Hospital", "type": "hospital" }, "geometry": { "type": "Point", "coordinates": [ 103.813341792491016, 1.326669823262506 ] } },
{ "type": "Feature", "properties": { "id": 163.000000, "osm_id": 898910247.000000, "name": "Sekolah Nobel", "type": "school" }, "geometry": { "type": "Point", "coordinates": [ 104.045209960884847, 1.125949980527963 ] } },
{ "type": "Feature", "properties": { "id": 164.000000, "osm_id": 901171652.000000, "name": "SD dan SMP Kalam Kudus", "type": "school" }, "geometry": { "type": "Point", "coordinates": [ 104.024259980635861, 1.121509918778884 ] } },
{ "type": "Feature", "properties": { "id": 165.000000, "osm_id": 898911602.000000, "name": "Sekolah Yos Sudarso", "type": "school" }, "geometry": { "type": "Point", "coordinates": [ 104.043919985986406, 1.125369952828351 ] } },
{ "type": "Feature", "properties": { "id": 166.000000, "osm_id": 901203711.000000, "name": "Police Post (Pos Polisi Kara)", "type": "police" }, "geometry": { "type": "Point", "coordinates": [ 104.041349926835366, 1.110989959743875 ] } },
{ "type": "Feature", "properties": { "id": 167.000000, "osm_id": 901205298.000000, "name": "Fuel Station Duta Mas", "type": "fuel" }, "geometry": { "type": "Point", "coordinates": [ 104.039309939240965, 1.104859938676952 ] } },
{ "type": "Feature", "properties": { "id": 168.000000, "osm_id": 901204956.000000, "name": "SDN 07 Batam Kota", "type": "school" }, "geometry": { "type": "Point", "coordinates": [ 104.038919929286294, 1.108609918337748 ] } },
{ "type": "Feature", "properties": { "id": 169.000000, "osm_id": 902927386.000000, "name": "Sdn.06\/04", "type": "school" }, "geometry": { "type": "Point", "coordinates": [ 104.025449959429409, 1.143589947213712 ] } },
{ "type": "Feature", "properties": { "id": 170.000000, "osm_id": 902955280.000000, "name": "Puskesmas Sungai Panas", "type": "hospital" }, "geometry": { "type": "Point", "coordinates": [ 104.027829917016504, 1.145499931489866 ] } },
{ "type": "Feature", "properties": { "id": 171.000000, "osm_id": 902957516.000000, "name": "Pg-Tk-Sd Kristen Cahaya Bangsa", "type": "school" }, "geometry": { "type": "Point", "coordinates": [ 104.026499960439935, 1.148459916776574 ] } },
{ "type": "Feature", "properties": { "id": 172.000000, "osm_id": 902927483.000000, "name": "RSB Nuruddiniah", "type": "hospital" }, "geometry": { "type": "Point", "coordinates": [ 104.027669990303934, 1.14276994562627 ] } },
{ "type": "Feature", "properties": { "id": 173.000000, "osm_id": 902910813.000000, "name": "SMP Negeri 10 Batam", "type": "school" }, "geometry": { "type": "Point", "coordinates": [ 104.031449977178113, 1.136229965675113 ] } },
{ "type": "Feature", "properties": { "id": 174.000000, "osm_id": 902914898.000000, "name": "Sekolah Yehonala", "type": "school" }, "geometry": { "type": "Point", "coordinates": [ 104.031819954384147, 1.134099956440678 ] } },
{ "type": "Feature", "properties": { "id": 175.000000, "osm_id": 902944149.000000, "name": "SMPN 30", "type": "school" }, "geometry": { "type": "Point", "coordinates": [ 104.036239983384633, 1.154189953424037 ] } },
{ "type": "Feature", "properties": { "id": 176.000000, "osm_id": 902923823.000000, "name": "SMP Negeri 6 Batam", "type": "school" }, "geometry": { "type": "Point", "coordinates": [ 104.028204839545424, 1.14424993826961 ] } },
{ "type": "Feature", "properties": { "id": 177.000000, "osm_id": 902944170.000000, "name": "Tk\/Yayasan Al Hijrah Bengkong", "type": "school" }, "geometry": { "type": "Point", "coordinates": [ 104.03709996665026, 1.154269916780322 ] } },
{ "type": "Feature", "properties": { "id": 178.000000, "osm_id": 902944200.000000, "name": "SDN 11 Bengkong", "type": "school" }, "geometry": { "type": "Point", "coordinates": [ 104.036519938950676, 1.153519987903394 ] } },
{ "type": "Feature", "properties": { "id": 179.000000, "osm_id": 902944264.000000, "name": "SMAN 8", "type": "school" }, "geometry": { "type": "Point", "coordinates": [ 104.036879941691936, 1.153199966840219 ] } },
{ "type": "Feature", "properties": { "id": 180.000000, "osm_id": 902988505.000000, "name": "Madrasah Al Fudholah Bengkong Laut", "type": "school" }, "geometry": { "type": "Point", "coordinates": [ 104.032369974870392, 1.156099937700191 ] } },
{ "type": "Feature", "properties": { "id": 181.000000, "osm_id": 902927350.000000, "name": "Smpn.010\/013", "type": "school" }, "geometry": { "type": "Point", "coordinates": [ 104.025209985541551, 1.144289919947738 ] } },
{ "type": "Feature", "properties": { "id": 182.000000, "osm_id": 902960606.000000, "name": "Lurah Bengkong Indah Office", "type": "townhall" }, "geometry": { "type": "Point", "coordinates": [ 104.026449920478001, 1.146079959189478 ] } },
{ "type": "Feature", "properties": { "id": 183.000000, "osm_id": 902988443.000000, "name": "SDN 03 Bengkong", "type": "school" }, "geometry": { "type": "Point", "coordinates": [ 104.032819999251785, 1.157019935392526 ] } },
{ "type": "Feature", "properties": { "id": 184.000000, "osm_id": 902966363.000000, "name": "SD Sinar Timur Bengkong", "type": "school" }, "geometry": { "type": "Point", "coordinates": [ 104.026278175281959, 1.152440147317549 ] } },
{ "type": "Feature", "properties": { "id": 185.000000, "osm_id": 903034239.000000, "name": "Tk\/Sd\/Smp Effata", "type": "school" }, "geometry": { "type": "Point", "coordinates": [ 104.027269922065443, 1.16031997449096 ] } },
{ "type": "Feature", "properties": { "id": 186.000000, "osm_id": 903027788.000000, "name": "SMPN 04", "type": "school" }, "geometry": { "type": "Point", "coordinates": [ 104.019399985537802, 1.160969991082055 ] } },
{ "type": "Feature", "properties": { "id": 187.000000, "osm_id": 902990366.000000, "name": "Smk Al Jabar", "type": "school" }, "geometry": { "type": "Point", "coordinates": [ 104.02462995784191, 1.156049981557288 ] } },
{ "type": "Feature", "properties": { "id": 188.000000, "osm_id": 903122640.000000, "name": "Camat Bengkong Office", "type": "townhall" }, "geometry": { "type": "Point", "coordinates": [ 104.038659922649856, 1.156979953714369 ] } },
{ "type": "Feature", "properties": { "id": 189.000000, "osm_id": 902988879.000000, "name": "SDN 11 Bengkong", "type": "school" }, "geometry": { "type": "Point", "coordinates": [ 104.032289927695103, 1.156629925437869 ] } },
{ "type": "Feature", "properties": { "id": 190.000000, "osm_id": 903027857.000000, "name": "Sekolah Hang Tuah", "type": "school" }, "geometry": { "type": "Point", "coordinates": [ 104.020059976593643, 1.163089942032713 ] } },
{ "type": "Feature", "properties": { "id": 191.000000, "osm_id": 902990041.000000, "name": "Police (Polsek Persiapan Bengkong)", "type": "police" }, "geometry": { "type": "Point", "coordinates": [ 104.028229985254939, 1.158409990214807 ] } },
{ "type": "Feature", "properties": { "id": 192.000000, "osm_id": 903034884.000000, "name": "SDN 09 Bengkong", "type": "school" }, "geometry": { "type": "Point", "coordinates": [ 104.023599989579964, 1.160689951697037 ] } },
{ "type": "Feature", "properties": { "id": 193.000000, "osm_id": 903110332.000000, "name": "MAN 2", "type": "school" }, "geometry": { "type": "Point", "coordinates": [ 104.034239977468417, 1.157829962515194 ] } },
{ "type": "Feature", "properties": { "id": 194.000000, "osm_id": 903048521.000000, "name": "SDN 07 Bengkong", "type": "school" }, "geometry": { "type": "Point", "coordinates": [ 104.026239953803497, 1.160689951697037 ] } },
{ "type": "Feature", "properties": { "id": 195.000000, "osm_id": 903110376.000000, "name": "Tk\/Sd Hasanah", "type": "school" }, "geometry": { "type": "Point", "coordinates": [ 104.033169943709311, 1.160579981127398 ] } },
{ "type": "Feature", "properties": { "id": 196.000000, "osm_id": 903113922.000000, "name": "Fuel Station (Spbu Bengkong L.)", "type": "fuel" }, "geometry": { "type": "Point", "coordinates": [ 104.032179957125479, 1.159359995120496 ] } },
{ "type": "Feature", "properties": { "id": 197.000000, "osm_id": 903271275.000000, "name": "Fuel Station S.Panas", "type": "fuel" }, "geometry": { "type": "Point", "coordinates": [ 104.027219965922541, 1.139019965965474 ] } },
{ "type": "Feature", "properties": { "id": 198.000000, "osm_id": 903048758.000000, "name": "RSB Budi Rosari", "type": "hospital" }, "geometry": { "type": "Point", "coordinates": [ 104.030569961163906, 1.158349975788099 ] } },
{ "type": "Feature", "properties": { "id": 199.000000, "osm_id": 903286511.000000, "name": "SMKN 03", "type": "school" }, "geometry": { "type": "Point", "coordinates": [ 104.058489996815851, 1.024219995177475 ] } },
{ "type": "Feature", "properties": { "id": 200.000000, "osm_id": 951243862.000000, "name": null, "type": "fire_station" }, "geometry": { "type": "Point", "coordinates": [ 103.671422844537403, 1.640889855059924 ] } },
{ "type": "Feature", "properties": { "id": 201.000000, "osm_id": 945777687.000000, "name": "SD Al Kaffah", "type": "school" }, "geometry": { "type": "Point", "coordinates": [ 104.051824875050329, 1.099662236700027 ] } },
{ "type": "Feature", "properties": { "id": 202.000000, "osm_id": 986663231.000000, "name": null, "type": "police" }, "geometry": { "type": "Point", "coordinates": [ 103.999515596639242, 1.385632153498534 ] } },
{ "type": "Feature", "properties": { "id": 203.000000, "osm_id": 1044484287.000000, "name": null, "type": "fire_station" }, "geometry": { "type": "Point", "coordinates": [ 103.750869791758177, 1.485486268918805 ] } },
{ "type": "Feature", "properties": { "id": 204.000000, "osm_id": 1076646001.000000, "name": null, "type": "police" }, "geometry": { "type": "Point", "coordinates": [ 104.018028370902471, 1.13076052239731 ] } },
{ "type": "Feature", "properties": { "id": 205.000000, "osm_id": 1080233666.000000, "name": null, "type": "school" }, "geometry": { "type": "Point", "coordinates": [ 103.7982941808188, 1.303543984768709 ] } },
{ "type": "Feature", "properties": { "id": 206.000000, "osm_id": 1068988734.000000, "name": null, "type": "police" }, "geometry": { "type": "Point", "coordinates": [ 104.018666736648171, 1.12410654856302 ] } },
{ "type": "Feature", "properties": { "id": 207.000000, "osm_id": 1069011993.000000, "name": null, "type": "police" }, "geometry": { "type": "Point", "coordinates": [ 104.006949171287701, 1.150497138342899 ] } },
{ "type": "Feature", "properties": { "id": 208.000000, "osm_id": 1076641104.000000, "name": null, "type": "police" }, "geometry": { "type": "Point", "coordinates": [ 103.95475547932142, 1.105250116269701 ] } },
{ "type": "Feature", "properties": { "id": 209.000000, "osm_id": 1150260642.000000, "name": "United World College, Tampines", "type": "school" }, "geometry": { "type": "Point", "coordinates": [ 103.931253293375107, 1.358253337334503 ] } },
{ "type": "Feature", "properties": { "id": 210.000000, "osm_id": 1164677083.000000, "name": "Polsekta Nongsa", "type": "police" }, "geometry": { "type": "Point", "coordinates": [ 104.125015318285307, 1.051805592892777 ] } },
{ "type": "Feature", "properties": { "id": 211.000000, "osm_id": 1208261385.000000, "name": "S.A.V.H. Library", "type": "library" }, "geometry": { "type": "Point", "coordinates": [ 103.839965063903037, 1.338598277306801 ] } },
{ "type": "Feature", "properties": { "id": 212.000000, "osm_id": 1244322596.000000, "name": "Hiitop Library", "type": "library" }, "geometry": { "type": "Point", "coordinates": [ 103.774590577739275, 1.311227843045941 ] } },
{ "type": "Feature", "properties": { "id": 213.000000, "osm_id": 1294294477.000000, "name": "Salmart Batam", "type": "townhall" }, "geometry": { "type": "Point", "coordinates": [ 104.007111444933173, 1.135642561900738 ] } },
{ "type": "Feature", "properties": { "id": 214.000000, "osm_id": 1294328872.000000, "name": "Sekolah Bina Nusantara Batam", "type": "school" }, "geometry": { "type": "Point", "coordinates": [ 104.041350848844729, 1.105540297757557 ] } },
{ "type": "Feature", "properties": { "id": 215.000000, "osm_id": 1315694193.000000, "name": "ESSO", "type": "fuel" }, "geometry": { "type": "Point", "coordinates": [ 103.939620528218086, 1.328274370987003 ] } },
{ "type": "Feature", "properties": { "id": 216.000000, "osm_id": 1314763926.000000, "name": null, "type": "library" }, "geometry": { "type": "Point", "coordinates": [ 103.939022563245658, 1.3129875397982 ] } },
{ "type": "Feature", "properties": { "id": 217.000000, "osm_id": 1315694304.000000, "name": "SPC", "type": "fuel" }, "geometry": { "type": "Point", "coordinates": [ 103.939711723324592, 1.327941860888131 ] } },
{ "type": "Feature", "properties": { "id": 218.000000, "osm_id": 1316762338.000000, "name": "Nee Soon Central Fire Post", "type": "fire_station" }, "geometry": { "type": "Point", "coordinates": [ 103.83864105847772, 1.419094135890731 ] } },
{ "type": "Feature", "properties": { "id": 219.000000, "osm_id": 1394607372.000000, "name": "27", "type": "library" }, "geometry": { "type": "Point", "coordinates": [ 103.932499179462809, 1.344976235069595 ] } },
{ "type": "Feature", "properties": { "id": 220.000000, "osm_id": 1456159971.000000, "name": "Pos Babinsa, Windsor", "type": "police" }, "geometry": { "type": "Point", "coordinates": [ 104.008299663527055, 1.138439519170703 ] } },
{ "type": "Feature", "properties": { "id": 221.000000, "osm_id": 1522784671.000000, "name": "Sekola Dasar Negri No 006\nSei Beduk", "type": "school" }, "geometry": { "type": "Point", "coordinates": [ 104.049968618773505, 1.030084393732807 ] } },
{ "type": "Feature", "properties": { "id": 222.000000, "osm_id": 1548436393.000000, "name": "Bukit Merah East Neighbourhood Police Centre", "type": "police" }, "geometry": { "type": "Point", "coordinates": [ 103.839610425579735, 1.278813430912351 ] } },
{ "type": "Feature", "properties": { "id": 223.000000, "osm_id": 1553397915.000000, "name": "Medical\/Science Library", "type": "library" }, "geometry": { "type": "Point", "coordinates": [ 103.780098326314587, 1.295188316952135 ] } },
{ "type": "Feature", "properties": { "id": 224.000000, "osm_id": 1565963296.000000, "name": "Makespace Singapore", "type": "townhall" }, "geometry": { "type": "Point", "coordinates": [ 103.861894469537845, 1.309592533736804 ] } },
{ "type": "Feature", "properties": { "id": 225.000000, "osm_id": 1591710570.000000, "name": "Hospital Sultanah Aminah", "type": "hospital" }, "geometry": { "type": "Point", "coordinates": [ 103.746069727267866, 1.458765851249041 ] } },
{ "type": "Feature", "properties": { "id": 226.000000, "osm_id": 1585552250.000000, "name": "SMA Negeri 5", "type": "school" }, "geometry": { "type": "Point", "coordinates": [ 103.954610723853591, 1.038548020462287 ] } },
{ "type": "Feature", "properties": { "id": 227.000000, "osm_id": 1652500499.000000, "name": null, "type": "hospital" }, "geometry": { "type": "Point", "coordinates": [ 103.78695924933821, 1.29619582171361 ] } },
{ "type": "Feature", "properties": { "id": 228.000000, "osm_id": 1667531110.000000, "name": null, "type": "library" }, "geometry": { "type": "Point", "coordinates": [ 103.784247452204497, 1.443272573785066 ] } },
{ "type": "Feature", "properties": { "id": 229.000000, "osm_id": 1672783085.000000, "name": null, "type": "fuel" }, "geometry": { "type": "Point", "coordinates": [ 103.761586390241689, 1.464810460722617 ] } },
{ "type": "Feature", "properties": { "id": 230.000000, "osm_id": 1672783106.000000, "name": null, "type": "police" }, "geometry": { "type": "Point", "coordinates": [ 103.766309760317995, 1.458313563753819 ] } },
{ "type": "Feature", "properties": { "id": 231.000000, "osm_id": 1702308725.000000, "name": "Petronas", "type": "fuel" }, "geometry": { "type": "Point", "coordinates": [ 103.76563216726548, 1.471309788443364 ] } },
{ "type": "Feature", "properties": { "id": 232.000000, "osm_id": 1703872641.000000, "name": "Hua Language Centre", "type": "school" }, "geometry": { "type": "Point", "coordinates": [ 103.869689639489181, 1.387265954065128 ] } },
{ "type": "Feature", "properties": { "id": 233.000000, "osm_id": 1703872645.000000, "name": "Jan & Elly English Language School", "type": "school" }, "geometry": { "type": "Point", "coordinates": [ 103.869621746073506, 1.38726947446446 ] } },
{ "type": "Feature", "properties": { "id": 234.000000, "osm_id": 1707948360.000000, "name": null, "type": "fuel" }, "geometry": { "type": "Point", "coordinates": [ 103.847037965257925, 1.505131270662701 ] } },
{ "type": "Feature", "properties": { "id": 235.000000, "osm_id": 1709956725.000000, "name": "Shell", "type": "fuel" }, "geometry": { "type": "Point", "coordinates": [ 103.424343784997575, 1.488511968326378 ] } },
{ "type": "Feature", "properties": { "id": 236.000000, "osm_id": 1707483643.000000, "name": "Petronas", "type": "fuel" }, "geometry": { "type": "Point", "coordinates": [ 103.616007651905363, 1.56333864287987 ] } },
{ "type": "Feature", "properties": { "id": 237.000000, "osm_id": 1710977770.000000, "name": "Petronas", "type": "fuel" }, "geometry": { "type": "Point", "coordinates": [ 103.403659091984011, 1.482960382397465 ] } },
{ "type": "Feature", "properties": { "id": 238.000000, "osm_id": 1710977995.000000, "name": "Pontian Police Station", "type": "police" }, "geometry": { "type": "Point", "coordinates": [ 103.405369419326576, 1.485777037139883 ] } },
{ "type": "Feature", "properties": { "id": 239.000000, "osm_id": 1711346470.000000, "name": "Petronas", "type": "fuel" }, "geometry": { "type": "Point", "coordinates": [ 103.414910372070949, 1.482913862834834 ] } },
{ "type": "Feature", "properties": { "id": 240.000000, "osm_id": 1711346487.000000, "name": "Mobil", "type": "fuel" }, "geometry": { "type": "Point", "coordinates": [ 103.402521248628261, 1.481696559036948 ] } },
{ "type": "Feature", "properties": { "id": 241.000000, "osm_id": 1712254031.000000, "name": null, "type": "school" }, "geometry": { "type": "Point", "coordinates": [ 103.394648965167676, 1.473465194844437 ] } },
{ "type": "Feature", "properties": { "id": 242.000000, "osm_id": 1712254321.000000, "name": null, "type": "school" }, "geometry": { "type": "Point", "coordinates": [ 103.390982385443465, 1.487898748290206 ] } },
{ "type": "Feature", "properties": { "id": 243.000000, "osm_id": 1711346483.000000, "name": "Shell", "type": "fuel" }, "geometry": { "type": "Point", "coordinates": [ 103.391518827246557, 1.479937532836971 ] } },
{ "type": "Feature", "properties": { "id": 244.000000, "osm_id": 1712253981.000000, "name": "SJK (C) Cheow Min", "type": "school" }, "geometry": { "type": "Point", "coordinates": [ 103.416157599263158, 1.484555123295252 ] } },
{ "type": "Feature", "properties": { "id": 245.000000, "osm_id": 1712488943.000000, "name": null, "type": "school" }, "geometry": { "type": "Point", "coordinates": [ 103.403073783685443, 1.488951766785902 ] } },
{ "type": "Feature", "properties": { "id": 246.000000, "osm_id": 1712460930.000000, "name": "Perpustakaan Tunku Ibrahim Ismail", "type": "library" }, "geometry": { "type": "Point", "coordinates": [ 103.387726770431811, 1.48708142891175 ] } },
{ "type": "Feature", "properties": { "id": 247.000000, "osm_id": 1712489033.000000, "name": "Esso", "type": "fuel" }, "geometry": { "type": "Point", "coordinates": [ 103.391264771761371, 1.480750493625777 ] } },
{ "type": "Feature", "properties": { "id": 248.000000, "osm_id": 1712488960.000000, "name": "Pontian Hospital", "type": "hospital" }, "geometry": { "type": "Point", "coordinates": [ 103.385294174492799, 1.49846589744007 ] } },
{ "type": "Feature", "properties": { "id": 249.000000, "osm_id": 1714221627.000000, "name": "Petronas Pekan Nanas", "type": "fuel" }, "geometry": { "type": "Point", "coordinates": [ 103.507683371871167, 1.508944030778252 ] } },
{ "type": "Feature", "properties": { "id": 250.000000, "osm_id": 1714277007.000000, "name": "Shell", "type": "fuel" }, "geometry": { "type": "Point", "coordinates": [ 103.650110346976192, 1.550953039836514 ] } },
{ "type": "Feature", "properties": { "id": 251.000000, "osm_id": 1713894140.000000, "name": "Bomba Pontian", "type": "fire_station" }, "geometry": { "type": "Point", "coordinates": [ 103.387020259813312, 1.491952320483932 ] } },
{ "type": "Feature", "properties": { "id": 252.000000, "osm_id": 1714221724.000000, "name": "Petron Pekan Nanas", "type": "fuel" }, "geometry": { "type": "Point", "coordinates": [ 103.508383428424224, 1.508759042175228 ] } },
{ "type": "Feature", "properties": { "id": 253.000000, "osm_id": 1714277433.000000, "name": "Petronas", "type": "fuel" }, "geometry": { "type": "Point", "coordinates": [ 103.649404926005104, 1.551215896320031 ] } },
{ "type": "Feature", "properties": { "id": 254.000000, "osm_id": 1717393805.000000, "name": "Bomba", "type": "fire_station" }, "geometry": { "type": "Point", "coordinates": [ 103.626331558225161, 1.538156220623421 ] } },
{ "type": "Feature", "properties": { "id": 255.000000, "osm_id": 1714525711.000000, "name": null, "type": "fuel" }, "geometry": { "type": "Point", "coordinates": [ 103.614888081098513, 1.564867921113887 ] } },
{ "type": "Feature", "properties": { "id": 256.000000, "osm_id": 1719131925.000000, "name": "Bomba", "type": "fire_station" }, "geometry": { "type": "Point", "coordinates": [ 103.404058322032199, 1.484754947866918 ] } },
{ "type": "Feature", "properties": { "id": 257.000000, "osm_id": 1721874810.000000, "name": "Lien Ying Chow Library", "type": "library" }, "geometry": { "type": "Point", "coordinates": [ 103.776880681324315, 1.333670975526246 ] } },
{ "type": "Feature", "properties": { "id": 258.000000, "osm_id": 1731455889.000000, "name": "Putera Batam", "type": "school" }, "geometry": { "type": "Point", "coordinates": [ 103.968911424134035, 1.045849831592847 ] } },
{ "type": "Feature", "properties": { "id": 259.000000, "osm_id": 1738282478.000000, "name": "Balai Polis Pekan Nanas", "type": "police" }, "geometry": { "type": "Point", "coordinates": [ 103.511811291546096, 1.507210569382948 ] } },
{ "type": "Feature", "properties": { "id": 260.000000, "osm_id": 1742904249.000000, "name": "Caltex Bukit Batok Service Station", "type": "fuel" }, "geometry": { "type": "Point", "coordinates": [ 103.758477123259468, 1.343239588551086 ] } },
{ "type": "Feature", "properties": { "id": 261.000000, "osm_id": 1743938506.000000, "name": "Bukit Batok Public Library", "type": "library" }, "geometry": { "type": "Point", "coordinates": [ 103.749136162724824, 1.349661383667467 ] } },
{ "type": "Feature", "properties": { "id": 262.000000, "osm_id": 1754684146.000000, "name": "Pungol Point Police kiosk", "type": "police" }, "geometry": { "type": "Point", "coordinates": [ 103.910743195404677, 1.421624045725594 ] } },
{ "type": "Feature", "properties": { "id": 263.000000, "osm_id": 1770366148.000000, "name": null, "type": "fuel" }, "geometry": { "type": "Point", "coordinates": [ 103.759315984129046, 1.530016470632603 ] } },
{ "type": "Feature", "properties": { "id": 264.000000, "osm_id": 1770312814.000000, "name": "Petronas", "type": "fuel" }, "geometry": { "type": "Point", "coordinates": [ 103.789161091482868, 1.497635334654632 ] } },
{ "type": "Feature", "properties": { "id": 265.000000, "osm_id": 1770366149.000000, "name": null, "type": "fuel" }, "geometry": { "type": "Point", "coordinates": [ 103.767263872356239, 1.534935055233859 ] } },
{ "type": "Feature", "properties": { "id": 266.000000, "osm_id": 1770312815.000000, "name": "Shell", "type": "fuel" }, "geometry": { "type": "Point", "coordinates": [ 103.789851760304373, 1.497635334654632 ] } },
{ "type": "Feature", "properties": { "id": 267.000000, "osm_id": 1770366155.000000, "name": "Petron", "type": "fuel" }, "geometry": { "type": "Point", "coordinates": [ 103.779035584811197, 1.539479052582266 ] } },
{ "type": "Feature", "properties": { "id": 268.000000, "osm_id": 1780170433.000000, "name": "Shell Dunearn", "type": "fuel" }, "geometry": { "type": "Point", "coordinates": [ 103.7991008551802, 1.330923890580152 ] } },
{ "type": "Feature", "properties": { "id": 269.000000, "osm_id": 1792763706.000000, "name": "Shell", "type": "fuel" }, "geometry": { "type": "Point", "coordinates": [ 103.80339574236632, 1.297482443850726 ] } },
{ "type": "Feature", "properties": { "id": 270.000000, "osm_id": 1799259811.000000, "name": "Sekolah Menengah Kebangsaan Skudai", "type": "school" }, "geometry": { "type": "Point", "coordinates": [ 103.653408039141709, 1.546886894788003 ] } },
{ "type": "Feature", "properties": { "id": 271.000000, "osm_id": 1800164471.000000, "name": null, "type": "school" }, "geometry": { "type": "Point", "coordinates": [ 103.837925663041858, 1.33862903889144 ] } },
{ "type": "Feature", "properties": { "id": 272.000000, "osm_id": 1799260510.000000, "name": "Sekolah Kebangsaan Sri Skudai", "type": "school" }, "geometry": { "type": "Point", "coordinates": [ 103.651916730929088, 1.547857435356462 ] } },
{ "type": "Feature", "properties": { "id": 273.000000, "osm_id": 1800385237.000000, "name": "Caltex Taman Sri Skudai", "type": "fuel" }, "geometry": { "type": "Point", "coordinates": [ 103.654434235547271, 1.545440932671539 ] } },
{ "type": "Feature", "properties": { "id": 274.000000, "osm_id": 1830346332.000000, "name": "Bukit Merah Branch Office", "type": "townhall" }, "geometry": { "type": "Point", "coordinates": [ 103.817619664413698, 1.283127596475765 ] } },
{ "type": "Feature", "properties": { "id": 275.000000, "osm_id": 1830473209.000000, "name": "Shell", "type": "fuel" }, "geometry": { "type": "Point", "coordinates": [ 103.819514645083188, 1.288398472467406 ] } },
{ "type": "Feature", "properties": { "id": 276.000000, "osm_id": 1831666913.000000, "name": null, "type": "hospital" }, "geometry": { "type": "Point", "coordinates": [ 103.8424416648337, 1.273839022835972 ] } },
{ "type": "Feature", "properties": { "id": 277.000000, "osm_id": 1847853715.000000, "name": "Woodlands Regional Library", "type": "library" }, "geometry": { "type": "Point", "coordinates": [ 103.787192517703545, 1.434906847684687 ] } },
{ "type": "Feature", "properties": { "id": 278.000000, "osm_id": 1858770499.000000, "name": "Shell Pasir Panjang 168", "type": "fuel" }, "geometry": { "type": "Point", "coordinates": [ 103.789633495545729, 1.277384735516449 ] } },
{ "type": "Feature", "properties": { "id": 279.000000, "osm_id": 1873971329.000000, "name": "Esso petrol station", "type": "fuel" }, "geometry": { "type": "Point", "coordinates": [ 103.784355159660265, 1.431072881354083 ] } },
{ "type": "Feature", "properties": { "id": 280.000000, "osm_id": 1899722562.000000, "name": "German European School Singapore", "type": "school" }, "geometry": { "type": "Point", "coordinates": [ 103.791533840633235, 1.34550354059823 ] } },
{ "type": "Feature", "properties": { "id": 281.000000, "osm_id": 1918135915.000000, "name": null, "type": "fuel" }, "geometry": { "type": "Point", "coordinates": [ 103.688728624743646, 1.508206758575113 ] } },
{ "type": "Feature", "properties": { "id": 282.000000, "osm_id": 1979194825.000000, "name": "TPQ Al-Hidayah", "type": "school" }, "geometry": { "type": "Point", "coordinates": [ 104.088754450785402, 1.121373461395223 ] } },
{ "type": "Feature", "properties": { "id": 283.000000, "osm_id": 2004151005.000000, "name": "Shell", "type": "fuel" }, "geometry": { "type": "Point", "coordinates": [ 103.657384162550144, 1.544526718492392 ] } },
{ "type": "Feature", "properties": { "id": 284.000000, "osm_id": 2043132996.000000, "name": "Anjung Police Station", "type": "police" }, "geometry": { "type": "Point", "coordinates": [ 103.617878157417564, 1.424259735178509 ] } },
{ "type": "Feature", "properties": { "id": 285.000000, "osm_id": 2043133553.000000, "name": "Medini Police Beat Base", "type": "police" }, "geometry": { "type": "Point", "coordinates": [ 103.632010716720401, 1.427698746231584 ] } },
{ "type": "Feature", "properties": { "id": 286.000000, "osm_id": 2086858748.000000, "name": "SMA Santa Maria", "type": "school" }, "geometry": { "type": "Point", "coordinates": [ 104.471551442492114, 0.912461649413075 ] } },
{ "type": "Feature", "properties": { "id": 287.000000, "osm_id": 2202560821.000000, "name": "SMK Dato Penggawa Barat", "type": "school" }, "geometry": { "type": "Point", "coordinates": [ 103.40398607002686, 1.490707188767516 ] } },
{ "type": "Feature", "properties": { "id": 288.000000, "osm_id": 2296694340.000000, "name": "SPC", "type": "fuel" }, "geometry": { "type": "Point", "coordinates": [ 103.71488854454816, 1.349544288480132 ] } },
{ "type": "Feature", "properties": { "id": 289.000000, "osm_id": 2247504654.000000, "name": "Lee Wee Nam Library", "type": "library" }, "geometry": { "type": "Point", "coordinates": [ 103.680928090374252, 1.347688954212657 ] } },
{ "type": "Feature", "properties": { "id": 290.000000, "osm_id": 2385921293.000000, "name": "Petronas", "type": "fuel" }, "geometry": { "type": "Point", "coordinates": [ 104.205036090597389, 1.573014963360464 ] } },
{ "type": "Feature", "properties": { "id": 291.000000, "osm_id": 2299105274.000000, "name": "Holland-Bukit Panjang Town Council (Bangkit Office)", "type": "townhall" }, "geometry": { "type": "Point", "coordinates": [ 103.772896930384036, 1.379083540187139 ] } },
{ "type": "Feature", "properties": { "id": 292.000000, "osm_id": 2277886546.000000, "name": "Columbia Asia Hospital", "type": "hospital" }, "geometry": { "type": "Point", "coordinates": [ 103.63736599847698, 1.47861637725876 ] } },
{ "type": "Feature", "properties": { "id": 293.000000, "osm_id": 2309322675.000000, "name": "ITE College Central", "type": "school" }, "geometry": { "type": "Point", "coordinates": [ 103.856321593574876, 1.37758686755646 ] } },
{ "type": "Feature", "properties": { "id": 294.000000, "osm_id": 2259614601.000000, "name": "Nanyang Polytechnic", "type": "school" }, "geometry": { "type": "Point", "coordinates": [ 103.849099326705414, 1.38009858866144 ] } },
{ "type": "Feature", "properties": { "id": 295.000000, "osm_id": 2402974803.000000, "name": "Balai Polis Taman Impian Emas", "type": "police" }, "geometry": { "type": "Point", "coordinates": [ 103.674656247505652, 1.559775831116951 ] } },
{ "type": "Feature", "properties": { "id": 296.000000, "osm_id": 2405283349.000000, "name": "Sekolah Jenis Kebangsaan (Cina) PU SZE", "type": "school" }, "geometry": { "type": "Point", "coordinates": [ 103.662378854832241, 1.536075580798666 ] } },
{ "type": "Feature", "properties": { "id": 297.000000, "osm_id": 2405283343.000000, "name": "Sekolah Jenis Kebangsaan (Cina) Kuo Kuang 1", "type": "school" }, "geometry": { "type": "Point", "coordinates": [ 103.669597098388181, 1.527411291307232 ] } },
{ "type": "Feature", "properties": { "id": 298.000000, "osm_id": 2414220274.000000, "name": "Woodlands Fire Post", "type": "fire_station" }, "geometry": { "type": "Point", "coordinates": [ 103.792787354252823, 1.440118044525718 ] } },
{ "type": "Feature", "properties": { "id": 299.000000, "osm_id": 2413651464.000000, "name": "Bukit Panjang Fire Post", "type": "fire_station" }, "geometry": { "type": "Point", "coordinates": [ 103.770246488781538, 1.376157417789244 ] } },
{ "type": "Feature", "properties": { "id": 300.000000, "osm_id": 2440447194.000000, "name": "Lee Kong Chian School of Medicine (Novena Campus)", "type": "university" }, "geometry": { "type": "Point", "coordinates": [ 103.848957253446599, 1.321226531522598 ] } },
{ "type": "Feature", "properties": { "id": 301.000000, "osm_id": 2491835975.000000, "name": "ProHealth Medical Group", "type": "hospital" }, "geometry": { "type": "Point", "coordinates": [ 103.768685862229631, 1.309997044383948 ] } },
{ "type": "Feature", "properties": { "id": 302.000000, "osm_id": 2491833332.000000, "name": "My Family Clinic", "type": "hospital" }, "geometry": { "type": "Point", "coordinates": [ 103.768599696265028, 1.309853546201623 ] } },
{ "type": "Feature", "properties": { "id": 303.000000, "osm_id": 2491836241.000000, "name": "Casa Dental", "type": "hospital" }, "geometry": { "type": "Point", "coordinates": [ 103.768718970747159, 1.310069966941569 ] } },
{ "type": "Feature", "properties": { "id": 304.000000, "osm_id": 2564090744.000000, "name": null, "type": "school" }, "geometry": { "type": "Point", "coordinates": [ 103.650029880705688, 1.47818169176017 ] } },
{ "type": "Feature", "properties": { "id": 305.000000, "osm_id": 2656671581.000000, "name": "SAFTI Military Institute", "type": "school" }, "geometry": { "type": "Point", "coordinates": [ 103.683442158412106, 1.330450396869907 ] } },
{ "type": "Feature", "properties": { "id": 306.000000, "osm_id": 2678378796.000000, "name": "Madrasah At-Tahzibiah Al-Islamiah", "type": "school" }, "geometry": { "type": "Point", "coordinates": [ 103.820418046607244, 1.406647931687417 ] } },
{ "type": "Feature", "properties": { "id": 307.000000, "osm_id": 2697113328.000000, "name": "Evacuation Assembly Area", "type": "fire_station" }, "geometry": { "type": "Point", "coordinates": [ 103.632215235157844, 1.557584382532241 ] } },
{ "type": "Feature", "properties": { "id": 308.000000, "osm_id": 2690769114.000000, "name": "Shell", "type": "fuel" }, "geometry": { "type": "Point", "coordinates": [ 103.765270488143528, 1.471737684600384 ] } },
{ "type": "Feature", "properties": { "id": 309.000000, "osm_id": 2774576323.000000, "name": "Sekolah Menengah Kebangsaan Taman Universiti 2", "type": "school" }, "geometry": { "type": "Point", "coordinates": [ 103.632598120494777, 1.534448318116574 ] } },
{ "type": "Feature", "properties": { "id": 310.000000, "osm_id": 2774462677.000000, "name": "Sekolah Jenis Kebangsaan (C) Kulai Besar", "type": "school" }, "geometry": { "type": "Point", "coordinates": [ 103.579803529889944, 1.667047260293515 ] } },
{ "type": "Feature", "properties": { "id": 311.000000, "osm_id": 2886675741.000000, "name": "Shell", "type": "fuel" }, "geometry": { "type": "Point", "coordinates": [ 103.761651349991268, 1.546406947012286 ] } },
{ "type": "Feature", "properties": { "id": 312.000000, "osm_id": 2889130801.000000, "name": "SPC Pasir Panjang", "type": "fuel" }, "geometry": { "type": "Point", "coordinates": [ 103.790538321993324, 1.277042670047933 ] } },
{ "type": "Feature", "properties": { "id": 313.000000, "osm_id": 2895344093.000000, "name": null, "type": "fuel" }, "geometry": { "type": "Point", "coordinates": [ 103.786115778421888, 1.523250095476754 ] } },
{ "type": "Feature", "properties": { "id": 314.000000, "osm_id": 2896788150.000000, "name": null, "type": "fuel" }, "geometry": { "type": "Point", "coordinates": [ 103.79042558539561, 1.528588278150863 ] } },
{ "type": "Feature", "properties": { "id": 315.000000, "osm_id": 2924754419.000000, "name": null, "type": "fuel" }, "geometry": { "type": "Point", "coordinates": [ 103.731076681785225, 1.523058233713101 ] } },
{ "type": "Feature", "properties": { "id": 316.000000, "osm_id": 2924754423.000000, "name": null, "type": "fuel" }, "geometry": { "type": "Point", "coordinates": [ 103.731423273481482, 1.523329723556913 ] } },
{ "type": "Feature", "properties": { "id": 317.000000, "osm_id": 2927429212.000000, "name": null, "type": "fuel" }, "geometry": { "type": "Point", "coordinates": [ 103.762475291073258, 1.536557624050175 ] } },
{ "type": "Feature", "properties": { "id": 318.000000, "osm_id": 2924754406.000000, "name": null, "type": "fuel" }, "geometry": { "type": "Point", "coordinates": [ 103.721450317447577, 1.51615045585072 ] } },
{ "type": "Feature", "properties": { "id": 319.000000, "osm_id": 2990751447.000000, "name": "Cheng San Public Library", "type": "library" }, "geometry": { "type": "Point", "coordinates": [ 103.893971342430632, 1.372648753120813 ] } },
{ "type": "Feature", "properties": { "id": 320.000000, "osm_id": 2990751448.000000, "name": "Choa Chu Kang Public Library", "type": "library" }, "geometry": { "type": "Point", "coordinates": [ 103.745103461470023, 1.385152540998945 ] } },
{ "type": "Feature", "properties": { "id": 321.000000, "osm_id": 2987107830.000000, "name": null, "type": "fuel" }, "geometry": { "type": "Point", "coordinates": [ 103.914778159773377, 1.732571447247949 ] } },
{ "type": "Feature", "properties": { "id": 322.000000, "osm_id": 2990751445.000000, "name": "Bukit Panjang Public Library", "type": "library" }, "geometry": { "type": "Point", "coordinates": [ 103.764559954211506, 1.379693742738169 ] } },
{ "type": "Feature", "properties": { "id": 323.000000, "osm_id": 2990750577.000000, "name": "library@chinatown", "type": "library" }, "geometry": { "type": "Point", "coordinates": [ 103.84490342979575, 1.28490564959597 ] } },
{ "type": "Feature", "properties": { "id": 324.000000, "osm_id": 2990750578.000000, "name": "library@esplanade", "type": "library" }, "geometry": { "type": "Point", "coordinates": [ 103.856184130362792, 1.289889445403901 ] } },
{ "type": "Feature", "properties": { "id": 325.000000, "osm_id": 2990751453.000000, "name": "Marine Parade Public Library", "type": "library" }, "geometry": { "type": "Point", "coordinates": [ 103.909762177457253, 1.304971590517226 ] } },
{ "type": "Feature", "properties": { "id": 326.000000, "osm_id": 2990751455.000000, "name": "Pasir Ris Public Library", "type": "library" }, "geometry": { "type": "Point", "coordinates": [ 103.950032276883121, 1.372476924105769 ] } },
{ "type": "Feature", "properties": { "id": 327.000000, "osm_id": 2990751459.000000, "name": "Sembawang Public Library", "type": "library" }, "geometry": { "type": "Point", "coordinates": [ 103.819464186026096, 1.448313534172655 ] } },
{ "type": "Feature", "properties": { "id": 328.000000, "osm_id": 2990751464.000000, "name": "Yishun Public Library", "type": "library" }, "geometry": { "type": "Point", "coordinates": [ 103.835647126483195, 1.429604036641962 ] } },
{ "type": "Feature", "properties": { "id": 329.000000, "osm_id": 2990751461.000000, "name": "Sengkang Public Library", "type": "library" }, "geometry": { "type": "Point", "coordinates": [ 103.894686234952303, 1.39189335135012 ] } },
{ "type": "Feature", "properties": { "id": 330.000000, "osm_id": 2990751462.000000, "name": "Serangoon Public Library", "type": "library" }, "geometry": { "type": "Point", "coordinates": [ 103.872959587555258, 1.350586829596836 ] } },
{ "type": "Feature", "properties": { "id": 331.000000, "osm_id": 2990751466.000000, "name": "Clementi Public Library", "type": "library" }, "geometry": { "type": "Point", "coordinates": [ 103.764633882597536, 1.314813453585515 ] } },
{ "type": "Feature", "properties": { "id": 332.000000, "osm_id": 3002720836.000000, "name": "Universiti Teknologi Malaysia", "type": "university" }, "geometry": { "type": "Point", "coordinates": [ 103.636906334906939, 1.55771488876465 ] } },
{ "type": "Feature", "properties": { "id": 333.000000, "osm_id": 3038822602.000000, "name": "Caltex", "type": "fuel" }, "geometry": { "type": "Point", "coordinates": [ 103.815052538928796, 1.284460235261321 ] } },
{ "type": "Feature", "properties": { "id": 334.000000, "osm_id": 3218855282.000000, "name": "Marina Bay Fire Station", "type": "fire_station" }, "geometry": { "type": "Point", "coordinates": [ 103.849076444109755, 1.274882569781084 ] } },
{ "type": "Feature", "properties": { "id": 335.000000, "osm_id": 3262972380.000000, "name": null, "type": "fuel" }, "geometry": { "type": "Point", "coordinates": [ 103.650143790769846, 1.579489732104918 ] } },
{ "type": "Feature", "properties": { "id": 336.000000, "osm_id": 3273165864.000000, "name": "Shell", "type": "fuel" }, "geometry": { "type": "Point", "coordinates": [ 103.880240527746935, 1.312639942273591 ] } },
{ "type": "Feature", "properties": { "id": 337.000000, "osm_id": 3307616670.000000, "name": "library@Orchard", "type": "library" }, "geometry": { "type": "Point", "coordinates": [ 103.839681252661592, 1.300382163253602 ] } },
{ "type": "Feature", "properties": { "id": 338.000000, "osm_id": 3325194771.000000, "name": "West Coast Marine Fire Station", "type": "fire_station" }, "geometry": { "type": "Point", "coordinates": [ 103.762261552542327, 1.292522285009738 ] } },
{ "type": "Feature", "properties": { "id": 339.000000, "osm_id": 3336360586.000000, "name": "Criminal Investigation Department", "type": "police" }, "geometry": { "type": "Point", "coordinates": [ 103.839154952961266, 1.278469772882261 ] } },
{ "type": "Feature", "properties": { "id": 340.000000, "osm_id": 3500795516.000000, "name": "Central Narcotics Bureau", "type": "police" }, "geometry": { "type": "Point", "coordinates": [ 103.839601540762374, 1.278099795676183 ] } },
{ "type": "Feature", "properties": { "id": 341.000000, "osm_id": 3658522761.000000, "name": "Petronas", "type": "fuel" }, "geometry": { "type": "Point", "coordinates": [ 103.800941185840998, 1.582582235280796 ] } },
{ "type": "Feature", "properties": { "id": 342.000000, "osm_id": 3658524659.000000, "name": "Caltex", "type": "fuel" }, "geometry": { "type": "Point", "coordinates": [ 103.800380687975803, 1.569984653906147 ] } },
{ "type": "Feature", "properties": { "id": 343.000000, "osm_id": 3739330020.000000, "name": "German European School Singapore", "type": "school" }, "geometry": { "type": "Point", "coordinates": [ 103.76787617038309, 1.346925530471623 ] } },
{ "type": "Feature", "properties": { "id": 344.000000, "osm_id": 3741497274.000000, "name": "smk bukit indah 2", "type": "school" }, "geometry": { "type": "Point", "coordinates": [ 103.664121620140065, 1.472933949821311 ] } },
{ "type": "Feature", "properties": { "id": 345.000000, "osm_id": 3741495914.000000, "name": "smk bukit indah 2", "type": "school" }, "geometry": { "type": "Point", "coordinates": [ 103.664247935420846, 1.472987342544513 ] } },
{ "type": "Feature", "properties": { "id": 346.000000, "osm_id": 3750596338.000000, "name": "Eager Beaver Schoolhouse @ Bukit Merah Central", "type": "school" }, "geometry": { "type": "Point", "coordinates": [ 103.818078322155372, 1.282262751706327 ] } },
{ "type": "Feature", "properties": { "id": 347.000000, "osm_id": 3758967880.000000, "name": "Citikids Academy", "type": "school" }, "geometry": { "type": "Point", "coordinates": [ 103.847472566937483, 1.281751539431781 ] } },
{ "type": "Feature", "properties": { "id": 348.000000, "osm_id": 3764362540.000000, "name": "KTF Health Centre UTM", "type": "hospital" }, "geometry": { "type": "Point", "coordinates": [ 103.627409470973305, 1.559532336829761 ] } },
{ "type": "Feature", "properties": { "id": 349.000000, "osm_id": 3780395447.000000, "name": "Jurong East Fire Post", "type": "fire_station" }, "geometry": { "type": "Point", "coordinates": [ 103.731198051743206, 1.347640842088452 ] } },
{ "type": "Feature", "properties": { "id": 350.000000, "osm_id": 3806351602.000000, "name": "French Toast Pte Ltd", "type": "school" }, "geometry": { "type": "Point", "coordinates": [ 103.835412684651416, 1.352871065849683 ] } },
{ "type": "Feature", "properties": { "id": 351.000000, "osm_id": 3814060745.000000, "name": "Sekolah Menengah Kebangsaan Seri Aman", "type": "school" }, "geometry": { "type": "Point", "coordinates": [ 103.990307573088955, 1.82282467931617 ] } },
{ "type": "Feature", "properties": { "id": 352.000000, "osm_id": 3815502903.000000, "name": "Caltex Tun Abdul Razak", "type": "fuel" }, "geometry": { "type": "Point", "coordinates": [ 103.763167720094373, 1.46450552708518 ] } },
{ "type": "Feature", "properties": { "id": 353.000000, "osm_id": 3884339188.000000, "name": "SPBU", "type": "fuel" }, "geometry": { "type": "Point", "coordinates": [ 104.076339930176118, 1.101569957862324 ] } },
{ "type": "Feature", "properties": { "id": 354.000000, "osm_id": 3884339189.000000, "name": "SPBU", "type": "fuel" }, "geometry": { "type": "Point", "coordinates": [ 104.090363357099591, 1.107250457462044 ] } },
{ "type": "Feature", "properties": { "id": 355.000000, "osm_id": 3924980571.000000, "name": null, "type": "library" }, "geometry": { "type": "Point", "coordinates": [ 103.770067535148769, 1.302812328440694 ] } },
{ "type": "Feature", "properties": { "id": 356.000000, "osm_id": 3931555506.000000, "name": "Shell", "type": "fuel" }, "geometry": { "type": "Point", "coordinates": [ 103.587831968206658, 1.66779802736076 ] } },
{ "type": "Feature", "properties": { "id": 357.000000, "osm_id": 3973658625.000000, "name": "Aljunied Neighbourhood Police Post", "type": "police" }, "geometry": { "type": "Point", "coordinates": [ 103.879300748763114, 1.335772653927989 ] } },
{ "type": "Feature", "properties": { "id": 358.000000, "osm_id": 3973658628.000000, "name": "Ayer Rajah Neighbourhood Police Post", "type": "police" }, "geometry": { "type": "Point", "coordinates": [ 103.741673670510394, 1.321102898450789 ] } },
{ "type": "Feature", "properties": { "id": 359.000000, "osm_id": 3973658626.000000, "name": "Ang Mo Kio North Neighbourhood Police Centre", "type": "police" }, "geometry": { "type": "Point", "coordinates": [ 103.845084478904297, 1.384938467191887 ] } },
{ "type": "Feature", "properties": { "id": 360.000000, "osm_id": 3973658624.000000, "name": "Alexandra Neighbourhood Police Post", "type": "police" }, "geometry": { "type": "Point", "coordinates": [ 103.798135259934611, 1.300156522420167 ] } },
{ "type": "Feature", "properties": { "id": 361.000000, "osm_id": 3973658627.000000, "name": "Ang Mo Kio South Neighbourhood Police Centre", "type": "police" }, "geometry": { "type": "Point", "coordinates": [ 103.851653124964287, 1.369910217715983 ] } },
{ "type": "Feature", "properties": { "id": 362.000000, "osm_id": 3973658632.000000, "name": "Bishan Neighbourhood Police Centre", "type": "police" }, "geometry": { "type": "Point", "coordinates": [ 103.847708936606978, 1.357806246619219 ] } },
{ "type": "Feature", "properties": { "id": 363.000000, "osm_id": 3973658634.000000, "name": "Boon Lay Neighbourhood Police Post", "type": "police" }, "geometry": { "type": "Point", "coordinates": [ 103.712964646312727, 1.347640674450389 ] } },
{ "type": "Feature", "properties": { "id": 364.000000, "osm_id": 3973658630.000000, "name": "Bedok North Neighbourhood Police Centre", "type": "police" }, "geometry": { "type": "Point", "coordinates": [ 103.937061281722094, 1.332709655051275 ] } },
{ "type": "Feature", "properties": { "id": 365.000000, "osm_id": 3973658631.000000, "name": "Bedok South Neighbourhood Police Centre", "type": "police" }, "geometry": { "type": "Point", "coordinates": [ 103.919815348304539, 1.323709586518731 ] } },
{ "type": "Feature", "properties": { "id": 366.000000, "osm_id": 3973658633.000000, "name": "Bishan Neighbourhood Police Post", "type": "police" }, "geometry": { "type": "Point", "coordinates": [ 103.850311768999461, 1.348168231436119 ] } },
{ "type": "Feature", "properties": { "id": 367.000000, "osm_id": 3973658629.000000, "name": "Bedok Neighbourhood Police Post", "type": "police" }, "geometry": { "type": "Point", "coordinates": [ 103.935969119738616, 1.321010362239747 ] } },
{ "type": "Feature", "properties": { "id": 368.000000, "osm_id": 3973658638.000000, "name": "Bukit Merah West Neighbourhood Police Centre", "type": "police" }, "geometry": { "type": "Point", "coordinates": [ 103.823311982496932, 1.286012060814869 ] } },
{ "type": "Feature", "properties": { "id": 369.000000, "osm_id": 3973658635.000000, "name": "Boon Teck Neighbourhood Police Post", "type": "police" }, "geometry": { "type": "Point", "coordinates": [ 103.845226133067968, 1.34240223642405 ] } },
{ "type": "Feature", "properties": { "id": 370.000000, "osm_id": 3973658641.000000, "name": "Bukit Panjang South Neighbourhood Police Post", "type": "police" }, "geometry": { "type": "Point", "coordinates": [ 103.771108567522901, 1.376840459078863 ] } },
{ "type": "Feature", "properties": { "id": 371.000000, "osm_id": 3973658639.000000, "name": "Bukit Panjang Neighbourhood Police Centre", "type": "police" }, "geometry": { "type": "Point", "coordinates": [ 103.771624138387097, 1.38678684447973 ] } },
{ "type": "Feature", "properties": { "id": 372.000000, "osm_id": 3973658637.000000, "name": "Bukit Batok Neighbourhood Police Post", "type": "police" }, "geometry": { "type": "Point", "coordinates": [ 103.747896479245469, 1.348070917540298 ] } },
{ "type": "Feature", "properties": { "id": 373.000000, "osm_id": 3973658644.000000, "name": "Buona Vista Neighbourhood Police Post", "type": "police" }, "geometry": { "type": "Point", "coordinates": [ 103.79320477303088, 1.309360690295023 ] } },
{ "type": "Feature", "properties": { "id": 374.000000, "osm_id": 3973658646.000000, "name": "Chai Chee Neighbourhood Police Post", "type": "police" }, "geometry": { "type": "Point", "coordinates": [ 103.926037654125423, 1.324854386854156 ] } },
{ "type": "Feature", "properties": { "id": 375.000000, "osm_id": 3973658645.000000, "name": "Cairnhill Neighbourhood Police Post", "type": "police" }, "geometry": { "type": "Point", "coordinates": [ 103.851454054763906, 1.313891947150609 ] } },
{ "type": "Feature", "properties": { "id": 376.000000, "osm_id": 3973658643.000000, "name": "Bukit Timah Neighbourhood Police Post", "type": "police" }, "geometry": { "type": "Point", "coordinates": [ 103.774585967692516, 1.339581893644208 ] } },
{ "type": "Feature", "properties": { "id": 377.000000, "osm_id": 3973658648.000000, "name": "Changkat Neighbourhood Police Post", "type": "police" }, "geometry": { "type": "Point", "coordinates": [ 103.948811452685888, 1.347408076637322 ] } },
{ "type": "Feature", "properties": { "id": 378.000000, "osm_id": 3973658647.000000, "name": "Changi Neighbourhood Police Centre", "type": "police" }, "geometry": { "type": "Point", "coordinates": [ 103.954802334160149, 1.344526965059487 ] } },
{ "type": "Feature", "properties": { "id": 379.000000, "osm_id": 3973667070.000000, "name": "Choa Chu Kang Neighbourhood Police Post", "type": "police" }, "geometry": { "type": "Point", "coordinates": [ 103.751779144433499, 1.378982286796798 ] } },
{ "type": "Feature", "properties": { "id": 380.000000, "osm_id": 3973667071.000000, "name": "Chong Pang Neighbourhood Police Post", "type": "police" }, "geometry": { "type": "Point", "coordinates": [ 103.829957071513832, 1.431137673465599 ] } },
{ "type": "Feature", "properties": { "id": 381.000000, "osm_id": 3973667072.000000, "name": "Clementi Neighbourhood Police Centre", "type": "police" }, "geometry": { "type": "Point", "coordinates": [ 103.76655543390001, 1.317172456414653 ] } },
{ "type": "Feature", "properties": { "id": 382.000000, "osm_id": 3973667069.000000, "name": "Choa Chu Kang Neighbourhood Police Centre", "type": "police" }, "geometry": { "type": "Point", "coordinates": [ 103.74472744929362, 1.394917877291249 ] } },
{ "type": "Feature", "properties": { "id": 383.000000, "osm_id": 3973667073.000000, "name": "Clementi Neighbourhood Police Post", "type": "police" }, "geometry": { "type": "Point", "coordinates": [ 103.763802649259787, 1.3119709825813 ] } },
{ "type": "Feature", "properties": { "id": 384.000000, "osm_id": 3973667074.000000, "name": "Commercial Affairs Department", "type": "police" }, "geometry": { "type": "Point", "coordinates": [ 103.839249249372017, 1.278510844207801 ] } },
{ "type": "Feature", "properties": { "id": 385.000000, "osm_id": 3973667075.000000, "name": "Commonwealth Neighbourhood Police Post", "type": "police" }, "geometry": { "type": "Point", "coordinates": [ 103.798291582428817, 1.306268019481081 ] } },
{ "type": "Feature", "properties": { "id": 386.000000, "osm_id": 3973667076.000000, "name": "Dover Neighbourhood Police Post", "type": "police" }, "geometry": { "type": "Point", "coordinates": [ 103.782319949750729, 1.303802734119699 ] } },
{ "type": "Feature", "properties": { "id": 387.000000, "osm_id": 3973667077.000000, "name": "Eunos Neighbourhood Police Post", "type": "police" }, "geometry": { "type": "Point", "coordinates": [ 103.914500718778356, 1.334399362912023 ] } },
{ "type": "Feature", "properties": { "id": 388.000000, "osm_id": 3973667078.000000, "name": "Geylang Neighbourhood Police Centre", "type": "police" }, "geometry": { "type": "Point", "coordinates": [ 103.89095536603071, 1.326506292331601 ] } },
{ "type": "Feature", "properties": { "id": 389.000000, "osm_id": 3973667079.000000, "name": "Geylang Serai Neighbourhood Police Post", "type": "police" }, "geometry": { "type": "Point", "coordinates": [ 103.884028728886165, 1.320371577398902 ] } },
{ "type": "Feature", "properties": { "id": 390.000000, "osm_id": 3973667080.000000, "name": "Hong Kah North Neighbourhood Police Post", "type": "police" }, "geometry": { "type": "Point", "coordinates": [ 103.749306985911502, 1.35995762970677 ] } },
{ "type": "Feature", "properties": { "id": 391.000000, "osm_id": 3973667081.000000, "name": "Hong Kah South Neighbourhood Police Post", "type": "police" }, "geometry": { "type": "Point", "coordinates": [ 103.719445198570384, 1.348376689368052 ] } },
{ "type": "Feature", "properties": { "id": 392.000000, "osm_id": 3973667084.000000, "name": "Joo Chiat Neighbourhood Police Post", "type": "police" }, "geometry": { "type": "Point", "coordinates": [ 103.901501057508483, 1.309910124048031 ] } },
{ "type": "Feature", "properties": { "id": 393.000000, "osm_id": 3973667085.000000, "name": "Jurong East Neighbourhood Police Centre", "type": "police" }, "geometry": { "type": "Point", "coordinates": [ 103.737227825248169, 1.3401267173505 ] } },
{ "type": "Feature", "properties": { "id": 394.000000, "osm_id": 3973667083.000000, "name": "Hougang Neighbourhood Police Post", "type": "police" }, "geometry": { "type": "Point", "coordinates": [ 103.899210953923372, 1.372949663444757 ] } },
{ "type": "Feature", "properties": { "id": 395.000000, "osm_id": 3973667087.000000, "name": "Jurong West Neighbourhood Police Centre", "type": "police" }, "geometry": { "type": "Point", "coordinates": [ 103.714455870706374, 1.349332729244026 ] } },
{ "type": "Feature", "properties": { "id": 396.000000, "osm_id": 3973667086.000000, "name": "Jurong Neighbourhood Police Post", "type": "police" }, "geometry": { "type": "Point", "coordinates": [ 103.722550023143924, 1.328553572181733 ] } },
{ "type": "Feature", "properties": { "id": 397.000000, "osm_id": 3973667088.000000, "name": "Kaki Bukit Neighbourhood Police Post", "type": "police" }, "geometry": { "type": "Point", "coordinates": [ 103.929129486748991, 1.334215799232538 ] } },
{ "type": "Feature", "properties": { "id": 398.000000, "osm_id": 3973667089.000000, "name": "Kallang Neighbourhood Police Post", "type": "police" }, "geometry": { "type": "Point", "coordinates": [ 103.861074132674219, 1.320485822739158 ] } },
{ "type": "Feature", "properties": { "id": 399.000000, "osm_id": 3973667094.000000, "name": "Kebun Baru Neighbourhood Police Post", "type": "police" }, "geometry": { "type": "Point", "coordinates": [ 103.836983620944181, 1.370816636725152 ] } },
{ "type": "Feature", "properties": { "id": 400.000000, "osm_id": 3973667091.000000, "name": "Kampong Java Neighbourhood Police Centre", "type": "police" }, "geometry": { "type": "Point", "coordinates": [ 103.846472773526955, 1.311910465240402 ] } },
{ "type": "Feature", "properties": { "id": 401.000000, "osm_id": 3973667093.000000, "name": "Kampong Ubi Neighbourhood Police Post", "type": "police" }, "geometry": { "type": "Point", "coordinates": [ 103.902774352419556, 1.321798931690324 ] } },
{ "type": "Feature", "properties": { "id": 402.000000, "osm_id": 3973667092.000000, "name": "Kampong Kembangan Neighbourhood Police Post", "type": "police" }, "geometry": { "type": "Point", "coordinates": [ 103.911407461231192, 1.323489393922358 ] } },
{ "type": "Feature", "properties": { "id": 403.000000, "osm_id": 3973667096.000000, "name": "Kim Seng Neighbourhood Police Post", "type": "police" }, "geometry": { "type": "Point", "coordinates": [ 103.82813627068748, 1.288852687800386 ] } },
{ "type": "Feature", "properties": { "id": 404.000000, "osm_id": 3973667090.000000, "name": "Kampong Glam Neighbourhood Police Post", "type": "police" }, "geometry": { "type": "Point", "coordinates": [ 103.863424585962136, 1.303957799328401 ] } },
{ "type": "Feature", "properties": { "id": 405.000000, "osm_id": 3973667098.000000, "name": "Kreta Ayer Neighbourhood Police Post", "type": "police" }, "geometry": { "type": "Point", "coordinates": [ 103.847123293032212, 1.286566439890777 ] } },
{ "type": "Feature", "properties": { "id": 406.000000, "osm_id": 3973667095.000000, "name": "Kim Keat Neighbourhood Police Post", "type": "police" }, "geometry": { "type": "Point", "coordinates": [ 103.859489366241235, 1.336960369607652 ] } },
{ "type": "Feature", "properties": { "id": 407.000000, "osm_id": 3973667099.000000, "name": "MacPherson Neighbourhood Police Post", "type": "police" }, "geometry": { "type": "Point", "coordinates": [ 103.887584918945606, 1.323856772738452 ] } },
{ "type": "Feature", "properties": { "id": 408.000000, "osm_id": 3973667101.000000, "name": "Marine Parade Neighbourhood Police Centre", "type": "police" }, "geometry": { "type": "Point", "coordinates": [ 103.914451097911567, 1.306223343937176 ] } },
{ "type": "Feature", "properties": { "id": 409.000000, "osm_id": 3973667097.000000, "name": "Kolam Ayer Neighbourhood Police Post", "type": "police" }, "geometry": { "type": "Point", "coordinates": [ 103.871031246911173, 1.321945782633918 ] } },
{ "type": "Feature", "properties": { "id": 410.000000, "osm_id": 3973667102.000000, "name": "Marine Parade Neighbourhood Police Post", "type": "police" }, "geometry": { "type": "Point", "coordinates": [ 103.907031185765277, 1.303561167670239 ] } },
{ "type": "Feature", "properties": { "id": 411.000000, "osm_id": 3973667100.000000, "name": "Marina Bay Neighbourhood Police Centre", "type": "police" }, "geometry": { "type": "Point", "coordinates": [ 103.848993882363459, 1.274735718837491 ] } },
{ "type": "Feature", "properties": { "id": 412.000000, "osm_id": 3973667103.000000, "name": "Marsiling Neighbourhood Police Post", "type": "police" }, "geometry": { "type": "Point", "coordinates": [ 103.777878127801955, 1.442298093722115 ] } },
{ "type": "Feature", "properties": { "id": 413.000000, "osm_id": 3973667104.000000, "name": "Moulmein Neighbourhood Police Post", "type": "police" }, "geometry": { "type": "Point", "coordinates": [ 103.850544953545736, 1.328715091455877 ] } },
{ "type": "Feature", "properties": { "id": 414.000000, "osm_id": 3973667105.000000, "name": "Mountbatten Neighbourhood Police Post", "type": "police" }, "geometry": { "type": "Point", "coordinates": [ 103.888505251914069, 1.307285666345365 ] } },
{ "type": "Feature", "properties": { "id": 415.000000, "osm_id": 3973667108.000000, "name": "Orchard Neighbourhood Police Centre", "type": "police" }, "geometry": { "type": "Point", "coordinates": [ 103.839852327305309, 1.298957239714099 ] } },
{ "type": "Feature", "properties": { "id": 416.000000, "osm_id": 3973667107.000000, "name": "Nee Soon South Neighbourhood Police Post", "type": "police" }, "geometry": { "type": "Point", "coordinates": [ 103.833290889682075, 1.418874362389545 ] } },
{ "type": "Feature", "properties": { "id": 417.000000, "osm_id": 3973667106.000000, "name": "Nanyang Neighbourhood Police Centre", "type": "police" }, "geometry": { "type": "Point", "coordinates": [ 103.70211075225528, 1.350887153187557 ] } },
{ "type": "Feature", "properties": { "id": 418.000000, "osm_id": 3973667110.000000, "name": "Pasir Ris Neighbourhood Police Centre", "type": "police" }, "geometry": { "type": "Point", "coordinates": [ 103.959667023123984, 1.36845595751538 ] } },
{ "type": "Feature", "properties": { "id": 419.000000, "osm_id": 3973667111.000000, "name": "Paya Lebar Neighbourhood Police Post", "type": "police" }, "geometry": { "type": "Point", "coordinates": [ 103.888765593826633, 1.352874083334825 ] } },
{ "type": "Feature", "properties": { "id": 420.000000, "osm_id": 3973667112.000000, "name": "Police Coast Guard", "type": "police" }, "geometry": { "type": "Point", "coordinates": [ 103.831695645870056, 1.257834784554546 ] } },
{ "type": "Feature", "properties": { "id": 421.000000, "osm_id": 3973667113.000000, "name": "Police National Service Department", "type": "police" }, "geometry": { "type": "Point", "coordinates": [ 103.834236787455211, 1.32978017989214 ] } },
{ "type": "Feature", "properties": { "id": 422.000000, "osm_id": 3973667115.000000, "name": "Public Affairs Department", "type": "police" }, "geometry": { "type": "Point", "coordinates": [ 103.844975178886941, 1.324264133232674 ] } },
{ "type": "Feature", "properties": { "id": 423.000000, "osm_id": 3973667114.000000, "name": "Potong Pasir Neighbourhood Police Post", "type": "police" }, "geometry": { "type": "Point", "coordinates": [ 103.866910954768116, 1.333120452125826 ] } },
{ "type": "Feature", "properties": { "id": 424.000000, "osm_id": 3973667116.000000, "name": "Public Transport Security Command TransCom", "type": "police" }, "geometry": { "type": "Point", "coordinates": [ 103.890933740720527, 1.326151151094138 ] } },
{ "type": "Feature", "properties": { "id": 425.000000, "osm_id": 3973670361.000000, "name": "River Valley Neighbourhood Police Post", "type": "police" }, "geometry": { "type": "Point", "coordinates": [ 103.82634371687476, 1.2917126769822 ] } },
{ "type": "Feature", "properties": { "id": 426.000000, "osm_id": 3973667118.000000, "name": "Radin Mas Neighbourhood Police Post", "type": "police" }, "geometry": { "type": "Point", "coordinates": [ 103.820540757669676, 1.276989444962766 ] } },
{ "type": "Feature", "properties": { "id": 427.000000, "osm_id": 3973670362.000000, "name": "Rochor Neighbourhood Police Centre", "type": "police" }, "geometry": { "type": "Point", "coordinates": [ 103.854269536039908, 1.307659834503056 ] } },
{ "type": "Feature", "properties": { "id": 428.000000, "osm_id": 3973670363.000000, "name": "Security Command", "type": "police" }, "geometry": { "type": "Point", "coordinates": [ 103.850092917507595, 1.339634364358091 ] } },
{ "type": "Feature", "properties": { "id": 429.000000, "osm_id": 3973670364.000000, "name": "Sembawang Neighbourhood Police Centre", "type": "police" }, "geometry": { "type": "Point", "coordinates": [ 103.819646157143993, 1.445278027938343 ] } },
{ "type": "Feature", "properties": { "id": 430.000000, "osm_id": 3973670365.000000, "name": "Sengkang Neighbourhood Police Centre", "type": "police" }, "geometry": { "type": "Point", "coordinates": [ 103.89386556281255, 1.39276708093692 ] } },
{ "type": "Feature", "properties": { "id": 431.000000, "osm_id": 3973670370.000000, "name": "Special Operations Command", "type": "police" }, "geometry": { "type": "Point", "coordinates": [ 103.800771368482685, 1.295712437357594 ] } },
{ "type": "Feature", "properties": { "id": 432.000000, "osm_id": 3973670367.000000, "name": "Serangoon Neighbourhood Police Centre", "type": "police" }, "geometry": { "type": "Point", "coordinates": [ 103.87036756781788, 1.351612523088193 ] } },
{ "type": "Feature", "properties": { "id": 433.000000, "osm_id": 3973670373.000000, "name": "Tampines North Neighbourhood Police Post", "type": "police" }, "geometry": { "type": "Point", "coordinates": [ 103.954351220131343, 1.358839819099558 ] } },
{ "type": "Feature", "properties": { "id": 434.000000, "osm_id": 3973670374.000000, "name": "Tanah Merah Neighbourhood Police Post", "type": "police" }, "geometry": { "type": "Point", "coordinates": [ 103.942264934850286, 1.323436168837191 ] } },